cluster,name_point,code_point,lat,long,y_proj,x_proj
8, Iglesia San Lazaro,CL08_PP_001,-16.392178,-71.534635,-1940303156,2838601284
8, Vivero Municipal Frente Al Parque Alto Selva Alegre,CL08_PP_002,-16.391467,-71.532926,-1940241.16,2838804345
8, Parque_Selva_Alegre,CL08_PP_003,-16.389773,-71.533702,-1940032399,2838738452
8, Colegio_Militar,CL08_PP_004,-16.385818,-71.532542,-1939582421,2838921577
8, Complejo Deportivo Romero,CL08_PP_005,-16.388841,-71.528428,-1939989338,2839348654
8, Plaza 1ro De Mayo,CL08_PP_006,-16.389649,-71.526553,-1940107873,2839550729
8, Malecon Amazonas,CL08_PP_007,-16.388798,-71.523727,-1940043506,2839882299
8, Calle Alianza Con Independencia,CL08_PP_008,-16.386894,-71.525328,-1939799668,2839725594
8, Av. Gutenberg Con Calle Independencia,CL08_PP_009,-16.385949,-71.526529,-1939673529,2839601731
8, Colegio Auvergne Peru - Francia,CL08_PP_010,-16.384993,-71.526381,-1939563089,2839630987
8, Ovalo_Del_Rocoto,CL08_PP_011,-16.383282,-71.525091,-1939378.34,2839799597
8, Calle Alfonso Con Calle Atlantida,CL08_PP_012,-16.384436,-71.52454,-1939520844,2839847026
8, Colegio San Martin De Porres,CL08_PP_013,-16.384178,-71.523483,-1939503849,2839970259
8, Av. Espanha Con Av. El Sol,CL08_PP_014,-16.383302,-71.521684,-1939423601,2840185704
8, Av. Argentica Con Calle Los Diamantes,CL08_PP_015,-16.383979,-71.5213,-1939507.97,2840220417
8, Av. Arequipa Con Psj. Las Rosas,CL08_PP_016,-16.386569,-71.522905,-1939792012,2840004605
8, Plaza Espiritu Santo,CL08_PP_017,-16.385557,-71.521684,-1939688509,2840156277
8, Parque_Vilcanota,CL08_PP_018,-16.386278,-71.521357,-1939777329,2840183.95
8, Colegio Santa Rosa,CL08_PP_019,-16.385183,-71.518527,-1939684348,2840519176
8, Comisaria_Alto_Selva_Alegre,CL08_PP_020,-16.383344,-71.51742,-1939482254,2840668.72
8, C.S. Alto Selva Alegre,CL08_PP_021,-16.380987,-71.518876,-1939187014,2840534358
8, Colegio_Williams_Morris,CL08_PP_022,-16.382502,-71.520966,-1939338665,2840277568
8, Compejo Deportivo Roosevelt,CL08_PP_023,-16.382008,-71.523494,-1939248.79,2839997324
8, Parque-Andres-Avelino-Caceres,CL08_PP_024,-16.381964,-71.526144,-1939210249,2839697378
8, CapIII_Essalud_Alto_Selva_Alegre,CL08_PP_025,-16.381413,-71.52694,-1939135498,2839614296
8, Iglesia Guadalupe,CL08_PP_026,-16.380179,-71.526417,-1938997122,2839689702
8, Parque_Antonio_Jose_De_Sucre,CL08_PP_027,-16.379902,-71.524438,-1938989501,2839917743
8, Parque_San_Jose,CL08_PP_028,-16.379198,-71.523345,-1938920562,2840050879
8, Colegio_Tomas_Marsano,CL08_PP_029,-16.380477,-71.521264,-1939097021,2840270194
8, Mercado Villar Hermosa,CL08_PP_030,-16.379083,-71.520505,-1938942818,2840374458
8, Losa_Deportiva_Ramiro_Priale,CL08_PP_031,-16.377992,-71.52121,-1938805772,2840308738
8, Loza-Deportiva-El-Sol,CL08_PP_032,-16.376656,-71.521675,-1938642967,2840273.43
8, Plaza Javier Heraud,CL08_PP_033,-16.378387,-71.524146,-1938815203,2839970619
8, Centro Deportivo Villa El Mirador,CL08_PP_034,-16.376951,-71.525171,-1938633604,2839873105
8, Parque_Fujimori,CL08_PP_035,-16.374919,-71.524132,-1938407975,2840017436
8, Avis Cruce Chilina,CL08_PP_036,-16.374998,-71.527551,-1938374217,2839628662
8, P.S. Heores Del Cenepa,CL08_PP_037,-16.376318,-71.526371,-1938544136,2839745271
8, Parque La Coca Cola,CL08_PP_038,-16.376782,-71.528766,-1938568495,2839467613
8, Parque Villa Conquistador,CL08_PP_039,-16.378698,-71.527486,-1938809685,2839587787
8, Losa_Deportiva_Asoc_De_Vivienda_Villa_Arequipa,CL08_PP_040,-16.379699,-71.527513,-1938926936,2839571671
8, Parque_Asoc_Villa_Arequipa,CL08_PP_041,-16.380164,-71.528531,-1938968744,2839450162
8, Semaforo De Vista Alegre,CL08_PP_042,-16.379581,-71.529571,-1938887165,2839339826
8, Parque_Avis_Villa_El_Conquistador_II,CL08_PP_043,-16.378943,-71.530567,-1938799681,2839235196
8, Loza-Deportiva Artesanos El Misti,CL08_PP_044,-16.378353,-71.530905,-1938726119,2839204559
8, Canchas_Sinteticas_Chilina,CL08_PP_045,-16.376425,-71.531176,-1938496225,2839198962
8, Parque Cruce Chilina,CL08_PP_046,-16.373004,-71.525626,-1938164204,2839872972
8, Loza Deportiva Hoyos Rubio,CL08_PP_047,-16.373369,-71.523742,-1938230797,2840081878
8, Parque Alianza,CL08_PP_048,-16.388427,-71.526598,-1939963755,2839561573
8, Calle Manuel Ugarte Con Arrayanes,CL08_PP_049,-16.390497,-71.529602,-1940169081,2839193.92
8, Calle Rivero Con Carlos Llosa,CL08_PP_050,-16.39398,-71.531873,-1940549618,2838890956
8, Plaza Campo Redondo,CL08_PP_051,-16.393245,-71.533671,-1940440633,2838696671
8, Paradero San Lazaro,CL08_PP_052,-16.393404,-71.535271,-1940439.16,2838513174
8, Urb. Campinha Paisajista,CL08_PP_053,-16.391335,-71.536424,-1940181606,2838409427
8, Urb El Molino De San Juan,CL08_PP_054,-16.391987,-71.537479,-1940244909,2838281297
8, Parador El Molino Blanco,CL08_PP_055,-16.390578,-71.535009,-1940110502,2838579748
8, Calle La Gruta Con M. Benavides,CL08_PP_056,-16.388368,-71.530801,-1939903888,2839085736
8, Reservorio,CL08_PP_057,-16.377609,-71.529136,-1938660987,2839414.87
8, Coop Gral. Juan Velasco Alvarado Zona B,CL08_PP_058,-16.376492,-71.523548,-1938600117,2840063153
8, Colegio Santa Rosa De Lima Y Las Americas,CL08_PP_059,-16.387095,-71.521694,-1939869.06,2840135.07
8, Capilla Vista Alegre,CL08_PP_060,-16.380177,-71.530783,-1938941921,2839194611
8, Parque Juan Velazco Alvarado,CL08_PP_061,-16.376866,-71.530649,-1938554663,2839252977
8, Cancha Deportivo (Alto Selva Alegre Zona A),CL08_PP_062,-16.38490365,-71.51710352,-1939669468,2840684253
8, Parque Las Cometas,CL08_PP_063,-16.37393939,-71.52537554,-1938277241,2839889181
8, Parque Los Eucaliptos,CL08_PP_064,-16.37599545,-71.52610606,-1938509579,2839779524
8, Losa Deportiva Cooperativa Vista Alegre,CL08_PP_065,-16.37991318,-71.5306462,-1938912652,2839213564
8, Grifo Chilina,CL08_PP_066,-16.38124706,-71.53163979,-1939056835,2839083497
8, Canchas Deportivas Salazar Bondy,CL08_PP_067,-16.38041552,-71.52650196,-1939023837,2839676982
8, Parque Grau,CL08_PP_068,-16.39295626,-71.53773484,-1940355541,2838239645
