n_microred;microred;cluster;point_name;code_point;lat;long;y_proj;x_proj;type_point;estratategy
3;CIUDAD DE DIOS;20; Losa Deportiva Upis Los Milagros Zona 2;CL20_PP_001;-16.292959;-71.62905;-1927467.958;2829182.153;Fixed;Propuesto
3;CIUDAD DE DIOS;20; (Movil);CL20_PP_002;-16.28932;-71.62926;-1927038.053;2829205.28;Mobile;Establecido
3;CIUDAD DE DIOS;20; Losa Deportiva;CL20_PP_003;-16.287348;-71.62532;-1926855.584;2829677.542;Fixed;Propuesto
3;CIUDAD DE DIOS;20; Losa Deportiva;CL20_PP_004;-16.285343;-71.628494;-1926580.616;2829343.441;Fixed;Propuesto
3;CIUDAD DE DIOS;20; Asoc. Casa Granja Monte De Sinahi;CL20_PP_005;-16.285739;-71.633527;-1926564.435;2828767.556;Fixed;Propuesto
3;CIUDAD DE DIOS;20; Asoc. San Tusa - Lomas De Yura (Movil);CL20_PP_006;-16.287713;-71.631371;-1926823.067;2828986.606;Mobile;Establecido
3;CIUDAD DE DIOS;20; Loza Deportiva-Upis Milagros;CL20_PP_007;-16.290685;-71.633515;-1927145.327;2828705.142;Fixed;Establecido
3;CIUDAD DE DIOS;20; Losa Deportiva;CL20_PP_008;-16.292173;-71.633974;-1927314.325;2828633.901;Fixed;Propuesto
3;CIUDAD DE DIOS;20; Asoc. Milagros (Paradero Luren);CL20_PP_009;-16.292598;-71.63585;-1927340.861;2828415.682;Fixed;Establecido
3;CIUDAD DE DIOS;20; Parque La Perla De Yura;CL20_PP_010;-16.291188;-71.637672;-1927152.617;2828227.251;Fixed;Propuesto
3;CIUDAD DE DIOS;20; La Perla De Yura;CL20_PP_011;-16.290224;-71.640629;-1927002.613;2827904.36;Fixed;Propuesto
3;CIUDAD DE DIOS;20; La Pascanareal Progreso (Movil);CL20_PP_012;-16.289696;-71.642592;-1926916.183;2827688.567;Mobile;Establecido
3;CIUDAD DE DIOS;20; Las Lomas De Yura;CL20_PP_013;-16.299413;-71.643249;-1928048.87;2827488.796;Fixed;Propuesto
3;CIUDAD DE DIOS;20; Empresa Angeles Del Cono Norte (Movil);CL20_PP_014;-16.294573;-71.636756;-1927561.469;2828287.474;Mobile;Establecido
3;CIUDAD DE DIOS;20; Paradero Km 17;CL20_PP_015;-16.294392;-71.630993;-1927612.009;2828943.326;Fixed;Establecido
3;CIUDAD DE DIOS;20; Complejo Deportivo Upis Milagros Margen Izquierda;CL20_PP_016;-16.296524;-71.630301;-1927870.965;2828994.292;Fixed;Establecido
3;CIUDAD DE DIOS;20; Loza Deportiva Comite 36;CL20_PP_017;-16.298322;-71.628791;-1928100.901;2829142.324;Fixed;Establecido
3;CIUDAD DE DIOS;20; Asoc. Puno-Cusco (Movil);CL20_PP_018;-16.299657;-71.631054;-1928229.449;2828868.476;Mobile;Establecido
3;CIUDAD DE DIOS;20; Asoc. Altiplano Taller (Movil);CL20_PP_019;-16.300951;-71.630912;-1928383.156;2828867.879;Mobile;Establecido
3;CIUDAD DE DIOS;20; Complejo Residentes De Salamanca;CL20_PP_020;-16.300886;-71.633268;-1928346.161;2828601.559;Fixed;Propuesto
3;CIUDAD DE DIOS;20; Asoc. Salamanca;CL20_PP_021;-16.299037;-71.634459;-1928114.22;2828490.363;Fixed;Establecido
3;CIUDAD DE DIOS;20; Olla Comun Bellavista;CL20_PP_022;-16.302194;-71.638373;-1928436.125;2828005.814;Fixed;Establecido
3;CIUDAD DE DIOS;20; Asoc. Bellavista Zona 2 (Movil);CL20_PP_023;-16.304626;-71.639649;-1928705.77;2827829.753;Mobile;Establecido
3;CIUDAD DE DIOS;20; Iglesia Pentecostal;CL20_PP_024;-16.305623;-71.636727;-1928859.24;2828148.208;Fixed;Propuesto
3;CIUDAD DE DIOS;20; Losa Deportiva Residentes De Puno;CL20_PP_025;-16.307235;-71.637341;-1929040.855;2828057.785;Fixed;Propuesto
3;CIUDAD DE DIOS;20; Colegio El Altiplano;CL20_PP_026;-16.306626;-71.632147;-1929034.094;2828654.588;Fixed;Establecido
3;CIUDAD DE DIOS;20; Olla Comun Las Bendecidas;CL20_PP_027;-16.312732;-71.630199;-1929775.32;2828796.629;Fixed;Propuesto
3;CIUDAD DE DIOS;20; Losa Deportiva;CL20_PP_028;-16.312032;-71.631161;-1929681.132;2828696.591;Fixed;Propuesto
3;CIUDAD DE DIOS;20; Profamloza Deportiva Zona 2;CL20_PP_029;-16.313058;-71.632037;-1929790.674;2828584.014;Fixed;Establecido
3;CIUDAD DE DIOS;20; Olla Comun Hatum Warmis;CL20_PP_030;-16.311249;-71.636355;-1929524.434;2828117.772;Fixed;Propuesto
3;CIUDAD DE DIOS;20; Asoc. Profamreservorio Zona 1;CL20_PP_031;-16.313034;-71.636077;-1929737.479;2828126.248;Fixed;Establecido
3;CIUDAD DE DIOS;20; Utuparaolla Comun Sazon Y Sabor;CL20_PP_032;-16.310209;-71.638854;-1929371.176;2827847.849;Fixed;Establecido
3;CIUDAD DE DIOS;20; Olla Comun Sazon Y Sabor;CL20_PP_033;-16.31156;-71.639961;-1929515.998;2827704.896;Fixed;Propuesto
3;CIUDAD DE DIOS;20; Loza Deportivo Zona F;CL20_PP_034;-16.312404;-71.641007;-1929602.053;2827575.406;Fixed;Establecido
3;CIUDAD DE DIOS;20; Losa Deportiva;CL20_PP_035;-16.315952;-71.642341;-1930001.986;2827378.361;Fixed;Propuesto
3;CIUDAD DE DIOS;20; Losa Deportiva;CL20_PP_036;-16.313126;-71.645422;-1929631.797;2827065.518;Fixed;Propuesto
3;CIUDAD DE DIOS;20; Asoc. Chaparal (Movil);CL20_PP_037;-16.31022;-71.642259;-1929330.031;2827461.638;Mobile;Establecido
3;CIUDAD DE DIOS;20; Asoc. Bellavista;CL20_PP_038;-16.308102;-71.642984;-1929072.328;2827406.765;Fixed;Propuesto
3;CIUDAD DE DIOS;20; Cancha Deportiva Ardillas;CL20_PP_039;-16.309606;-71.645131;-1929222.156;2827143.93;Fixed;Establecido
3;CIUDAD DE DIOS;20; Cancha De Tierra;CL20_PP_040;-16.310885;-71.648574;-1929329.422;2826737.066;Fixed;Propuesto
3;CIUDAD DE DIOS;20; Losa Deportiva;CL20_PP_041;-16.306754;-71.646857;-1928865.814;2826985.025;Fixed;Propuesto
3;CIUDAD DE DIOS;20; Local Social La Victoria;CL20_PP_042;-16.306701;-71.648525;-1928838.816;2826796.589;Fixed;Establecido
3;CIUDAD DE DIOS;20; Losa Deportiva;CL20_PP_043;-16.306457;-71.651548;-1928772.521;2826456.989;Fixed;Propuesto
3;CIUDAD DE DIOS;20; Complejo Deportivo Autodromo;CL20_PP_044;-16.310893;-71.652734;-1929278.543;2826265.319;Fixed;Establecido
3;CIUDAD DE DIOS;20; Plaza Mayor;CL20_PP_045;-16.314449;-71.655067;-1929666.957;2825954.956;Fixed;Propuesto
3;CIUDAD DE DIOS;20; Local Social Sector 51-52;CL20_PP_046;-16.315408;-71.657225;-1929752.663;2825697.936;Fixed;Propuesto
3;CIUDAD DE DIOS;20; Losa Deportiva;CL20_PP_047;-16.317289;-71.653639;-1930018.157;2826080.214;Fixed;Propuesto
3;CIUDAD DE DIOS;20; Olla Comun El Gustito;CL20_PP_048;-16.319506;-71.646428;-1930368.297;2826869.121;Fixed;Propuesto
3;CIUDAD DE DIOS;20; Olla Comun Angel Benavente;CL20_PP_049;-16.319695;-71.644425;-1930415.455;2827093.767;Fixed;Establecido
3;CIUDAD DE DIOS;20; Minimarket Kn;CL20_PP_050;-16.32206;-71.644759;-1930688.952;2827025.367;Fixed;Propuesto
3;CIUDAD DE DIOS;20; Asoc. Virgen La Asuncionloza Deportiva;CL20_PP_051;-16.320793;-71.641129;-1930585.461;2827453.271;Fixed;Establecido
3;CIUDAD DE DIOS;20; Colegio Las Nueves;CL20_PP_052;-16.320212;-71.629813;-1930658.396;2828743.769;Fixed;Establecido
3;CIUDAD DE DIOS;20; Andenes Del Cono Norte (Movil);CL20_PP_053;-16.320884;-71.628756;-1930750.488;2828854.93;Mobile;Establecido
3;CIUDAD DE DIOS;20; Laderas;CL20_PP_054;-16.293197;-71.643289;-1927318.558;2827564.404;Fixed;Propuesto
3;CIUDAD DE DIOS;20; Parque;CL20_PP_055;-16.300045;-71.638029;-1928188.094;2828072.544;Fixed;Propuesto
3;CIUDAD DE DIOS;20; Loza Deportiva;CL20_PP_056;-16.320582;-71.648683;-1930466.514;2826599.58;Fixed;Propuesto
3;CIUDAD DE DIOS;20; Loza Deportiva;CL20_PP_057;-16.323268;-71.633801;-1930967.451;2828252.123;Fixed;Propuesto
3;CIUDAD DE DIOS;20; Gras Sentetica Ccoricancha;CL20_PP_058;-16.309563;-71.631821;-1929383.005;2828653.636;Fixed;Propuesto
3;CIUDAD DE DIOS;20; Asentamiento Humano Elmer Faucett Profam Sector 3;CL20_PP_059;-16.317439;-71.629244;-1930339.905;2828844.112;Fixed;Propuesto
3;CIUDAD DE DIOS;20; Empresa De Transportes Los Angeles De Ciudad De Dios;CL20_PP_060;-16.296426;-71.636237;-1927785.501;2828322.428;Fixed;Propuesto
3;CIUDAD DE DIOS;20; Institucionn Educativa Upis Los Milagros Zona 1 De Nivel Inicial - Jardin;CL20_PP_061;-16.291049;-71.632665;-1927198.654;2828796.84;Fixed;Propuesto
3;CIUDAD DE DIOS;20;Jardin De Elmer Faucett Profam Sector 3;CL20_PP_062;-16.31547823;-71.62971854;-1930103.762;2828815.636;Fixed;Propuesto
3;CIUDAD DE DIOS;20;Olla Comun La Union Angel Benavente;CL20_PP_063;-16.31807996;-71.64498814;-1930218.822;2827050.77;Fixed;Propuesto
3;CIUDAD DE DIOS;20;Mercado Zona C - Utupara;CL20_PP_064;-16.31439436;-71.64190944;-1929824.488;2827447.397;Fixed;Propuesto
3;CIUDAD DE DIOS;20;Losa Deportiva Upis Los Milagros Zona 3;CL20_PP_065;-16.28985364;-71.62947748;-1927098.004;2829173.733;Fixed;Propuesto
3;CIUDAD DE DIOS;20;Ie Upis Los Milagros;CL20_PP_066;-16.29210446;-71.62836922;-1927376.101;2829270.381;Fixed;Propuesto
3;CIUDAD DE DIOS;20;Loza Deportivo Zona 3;CL20_PP_067;-16.29381802;-71.64399283;-1927382.708;2827476.589;Fixed;Propuesto
