n_microred;microred;cluster;code_point;name_point;lat;long;y_proj;x_proj;type_point;strategy
5;SAN MARTIN DE SOCABAYA;1;CL01_PP_001;INTERSECCION CALLE JORGE CHAVEZ CON AV. SALAVERRY;-16.43100144;-71.53644799;-1944840.586;2837888.708;Fixed;Establecido
5;SAN MARTIN DE SOCABAYA;1;CL01_PP_002;INTERSSECION CALLE SANCHEZ TRUJILLO CON AV. SALAVERRY;-16.43232506;-71.53679274;-1944991.706;2837832.321;Fixed;Establecido
5;SAN MARTIN DE SOCABAYA;1;CL01_PP_003;EL MIRADOR DE SALAVERRY AV. SALAVERRY CON FERNANDINI;-16.43388889;-71.53744012;-1945167.221;2837738.488;Fixed;Establecido
5;SAN MARTIN DE SOCABAYA;1;CL01_PP_004;INTERSECCION CALLE FERNANDINI CON CALLE SANCHEZ TRUJILLO;-16.43371932;-71.53891113;-1945128.743;2837573.957;Fixed;Establecido
5;SAN MARTIN DE SOCABAYA;1;CL01_PP_005;INTERSECCION SANCHEZ CERRO CON AV. SALAVERRY (PARQUE);-16.43494561;-71.53819323;-1945281.837;2837639.301;Fixed;Establecido
5;SAN MARTIN DE SOCABAYA;1;CL01_PP_006;INTERSECCION CALLE SANCHEZ TRUJILLO CON CALLE MIGUEL GRAU;-16.43631658;-71.53984894;-1945421.972;2837433.693;Mobile;Establecido
5;SAN MARTIN DE SOCABAYA;1;CL01_PP_007;CANCHA MARISCAL CASTILLA;-16.43619647;-71.53851588;-1945424.687;2837586.372;Fixed;Propuesto
5;SAN MARTIN DE SOCABAYA;1;CL01_PP_008;PUESTO DE SALUD SALAVERRY/ AV. LAS PENHAS;-16.43505514;-71.53647338;-1945316.406;2837832.826;Fixed;Establecido
5;SAN MARTIN DE SOCABAYA;1;CL01_PP_009;EL PORVENIR INTERSECCION CONDESUYOS CON CALLE CAMANA;-16.43613692;-71.5352886;-1945458.423;2837952.982;Fixed;Establecido
5;SAN MARTIN DE SOCABAYA;1;CL01_PP_010;CAPILLA SANTISIMA VIRGEN DE CHAPI;-16.43725457;-71.53711899;-1945566.597;2837730.879;Fixed;Propuesto
5;SAN MARTIN DE SOCABAYA;1;CL01_PP_011;INTERSECCION CALLE CHICLAYO CON CALLE ABANCAY;-16.4358963;-71.53202841;-1945471.313;2838325.697;Fixed;Establecido
5;SAN MARTIN DE SOCABAYA;1;CL01_PP_012;INTERSECCION CALLE LOS ALAMOS CON CALLE LOS GERANIOS;-16.43849013;-71.53414921;-1945749.21;2838051.358;Fixed;Establecido
5;SAN MARTIN DE SOCABAYA;1;CL01_PP_013;CAMPO DEPORTIVO LA BOMBONERA (CALLE CAMANA CON CHACHAPOYAS);-16.43978384;-71.53397881;-1945903.319;2838053.75;Fixed;Establecido
5;SAN MARTIN DE SOCABAYA;1;CL01_PP_014;CENTRO DE SALUD SAN MARTIN DE SOCABAYA;-16.43900824;-71.5301407;-1945860.678;2838498.973;Fixed;Establecido
5;SAN MARTIN DE SOCABAYA;1;CL01_PP_015;PARQUE DE LA FAMILIA (CALLE CHIMBOTE);-16.4397393;-71.53093638;-1945936.502;2838399.211;Mobile;Establecido
5;SAN MARTIN DE SOCABAYA;1;CL01_PP_016;INTERSECCION CALLE MOLLENDO CON CALLE NAZCA;-16.44143;-71.53379427;-1946099.005;2838053.133;Fixed;Establecido
5;SAN MARTIN DE SOCABAYA;1;CL01_PP_017;INTERSECCION CALLE TALARA CON CALLE ZARUMILLA;-16.44366663;-71.53557357;-1946339.247;2837822.181;Mobile;Establecido
5;SAN MARTIN DE SOCABAYA;1;CL01_PP_018;VILLA OLIMPICA SAN MARTIN DE SOCABAYA;-16.44317757;-71.531945;-1946327.624;2838239.887;Fixed;Establecido
5;SAN MARTIN DE SOCABAYA;1;CL01_PP_019;VENTA DE GAS (CALLE HUANCAYO);-16.44171714;-71.52796692;-1946206.324;2838709.938;Fixed;Establecido
5;SAN MARTIN DE SOCABAYA;1;CL01_PP_020;CALLE LIRCAY CON CALLE HUACHO;-16.44337774;-71.52658446;-1946418.845;2838844.913;Fixed;Establecido
5;SAN MARTIN DE SOCABAYA;1;CL01_PP_021;TREBOL DE SANTA CLARA;-16.44471943;-71.52618064;-1946581.546;2838873.125;Fixed;Establecido
5;SAN MARTIN DE SOCABAYA;1;CL01_PP_022;ESQ. AGUSTIN GAMARRA/ GARCILAZO DE LA VEGA;-16.44588548;-71.52686028;-1946709.926;2838780.818;Fixed;Establecido
5;SAN MARTIN DE SOCABAYA;1;CL01_PP_023;PARQUE ALTO ALIANZA;-16.44533996;-71.52415758;-1946679.997;2839094.329;Fixed;Establecido
5;SAN MARTIN DE SOCABAYA;1;CL01_PP_024;PARQUE CHAVEZ CASTILLO;-16.44391831;-71.52295049;-1946528.256;2839249.776;Fixed;Establecido
5;SAN MARTIN DE SOCABAYA;1;CL01_PP_025;COLEGIO BELGICA;-16.44420625;-71.52154088;-1946579.892;2839405.798;Fixed;Establecido
5;SAN MARTIN DE SOCABAYA;1;CL01_PP_026;PARQUE COMITE 7;-16.44423227;-71.51936752;-1946610.415;2839651.831;Fixed;Propuesto
5;SAN MARTIN DE SOCABAYA;1;CL01_PP_027;PARQUE CORAZON DE JESUS 1;-16.44548028;-71.52231358;-1946719.782;2839301.522;Fixed;Propuesto
5;SAN MARTIN DE SOCABAYA;1;CL01_PP_028;PARQUE LA UNION;-16.44712531;-71.51991252;-1946943.364;2839552.158;Fixed;Establecido
5;SAN MARTIN DE SOCABAYA;1;CL01_PP_029;PARQUE CORAZON DE JESUS;-16.44666369;-71.52299534;-1946850.175;2839208.742;Fixed;Establecido
5;SAN MARTIN DE SOCABAYA;1;CL01_PP_030;PARQUE JESUS NAZARENO;-16.44874932;-71.5223203;-1947103.695;2839257.947;Fixed;Establecido
5;SAN MARTIN DE SOCABAYA;1;CL01_PP_031;EL ENSUENHO;-16.45096208;-71.52233955;-1947363.373;2839226.782;Fixed;Establecido
5;SAN MARTIN DE SOCABAYA;1;CL01_PP_032;RESIDENCIAL EL GOLF;-16.451885;-71.52445752;-1947445.01;2838974.613;Fixed;Establecido
5;SAN MARTIN DE SOCABAYA;1;CL01_PP_033;COLEGIO VILLA EL GOLF;-16.45138038;-71.52435739;-1947387.002;2838992.573;Fixed;Establecido
5;SAN MARTIN DE SOCABAYA;1;CL01_PP_034;ESQ. LAS AMERICAS CON ARGENTINA;-16.44976368;-71.52434583;-1947197.245;2839015.058;Fixed;Establecido
5;SAN MARTIN DE SOCABAYA;1;CL01_PP_035;PARQUE NUMERO 5;-16.44822744;-71.52324192;-1947030.744;2839160.312;Fixed;Propuesto
5;SAN MARTIN DE SOCABAYA;1;CL01_PP_036;PARQUE NUMERO 3 - CORAZON DE JESUS;-16.4471574;-71.52437216;-1946890.769;2839046.206;Fixed;Propuesto
5;SAN MARTIN DE SOCABAYA;1;CL01_PP_037;AV. PERU CON CALLE SANCHEZ CARRION;-16.44789988;-71.52535132;-1946965.609;2838925.49;Fixed;Establecido
5;SAN MARTIN DE SOCABAYA;1;CL01_PP_038;PARQUE INDEPENDENCIA;-16.44899063;-71.52628272;-1947081.962;2838805.629;Fixed;Establecido
5;SAN MARTIN DE SOCABAYA;1;CL01_PP_039;CENTRO DE SALUD 4 DE OCTUBRE;-16.4475234;-71.52735885;-1946896.021;2838702.859;Fixed;Establecido
5;SAN MARTIN DE SOCABAYA;1;CL01_PP_040;VILLA ORFELINA;-16.44627856;-71.52946742;-1946723.161;2838480.142;Fixed;Establecido
5;SAN MARTIN DE SOCABAYA;1;CL01_PP_041;PARQUE MIRADOR (CALLE PARURO);-16.4460962;-71.53260061;-1946662.163;2838127.374;Fixed;Establecido
5;SAN MARTIN DE SOCABAYA;1;CL01_PP_042;PARQUE RIMAC (RIMAC CON LOURDES);-16.44695985;-71.53512963;-1946731.664;2837829.407;Fixed;Establecido
5;SAN MARTIN DE SOCABAYA;1;CL01_PP_043;PARQUE SAN JOSE (SAN JOSE CON BASADRE);-16.44738564;-71.53577164;-1946773.568;2837751.064;Fixed;Establecido
5;SAN MARTIN DE SOCABAYA;1;CL01_PP_044;PARQUE 15 DE ENERO (DALLAS CON REPUBLICA);-16.44837683;-71.53522292;-1946896.92;2837800.288;Fixed;Establecido
5;SAN MARTIN DE SOCABAYA;1;CL01_PP_045;PUESTO DE SALUD CIUDAD MI TRABAJO;-16.44769377;-71.53419382;-1946829.688;2837925.876;Fixed;Establecido
5;SAN MARTIN DE SOCABAYA;1;CL01_PP_046;PARQUE LOS ANGELES;-16.44751391;-71.532828;-1946825.813;2838083.045;Fixed;Propuesto
5;SAN MARTIN DE SOCABAYA;1;CL01_PP_047;PARQUE DE LA MADRE (AV. INDEPENDENCIA);-16.44765127;-71.5317316;-1946855.797;2838205.524;Fixed;Establecido
5;SAN MARTIN DE SOCABAYA;1;CL01_PP_048;ESQ. MARIANO MELGAR/ASENCIO SEGURA;-16.44777897;-71.53013271;-1946890.995;2838385.089;Fixed;Establecido
5;SAN MARTIN DE SOCABAYA;1;CL01_PP_049;ESTADIO VALERIANO LOPEZ;-16.44760176;-71.52852608;-1946890.478;2838569.523;Fixed;Propuesto
5;SAN MARTIN DE SOCABAYA;1;CL01_PP_050;PARQUE JUAN VELASCO ALVARADO;-16.45024817;-71.52704828;-1947220.001;2838702.383;Fixed;Propuesto
5;SAN MARTIN DE SOCABAYA;1;CL01_PP_051;PARQUE TEMATICO VILLA EL GOLF;-16.45159489;-71.52679381;-1947381.404;2838713.591;Fixed;Establecido
5;SAN MARTIN DE SOCABAYA;1;CL01_PP_052;PARQUE TUPAC AMARU;-16.44965476;-71.52888406;-1947127.101;2838502.066;Fixed;Establecido
5;SAN MARTIN DE SOCABAYA;1;CL01_PP_053;ESQ. LOPEZ ALBUJAR CON AV. CESAR VALLEJO;-16.45107219;-71.52968868;-1947283.426;2838392.302;Fixed;Establecido
5;SAN MARTIN DE SOCABAYA;1;CL01_PP_054;GRIFO MILAGRITOS;-16.45248284;-71.53105484;-1947431.857;2838218.979;Fixed;Establecido
5;SAN MARTIN DE SOCABAYA;1;CL01_PP_055;PUESTO DE SALUD LARA;-16.45356165;-71.52848541;-1947591.043;2838496.091;Fixed;Establecido
5;SAN MARTIN DE SOCABAYA;1;CL01_PP_056;PARQUE EL COMERCIO;-16.45369727;-71.51797557;-1947739.841;2839685.622;Mobile;Establecido
5;SAN MARTIN DE SOCABAYA;1;CL01_PP_057;PARQUE IV SECTOR (AV. LA CAMPINHA CON CAPULIES);-16.45527801;-71.51647023;-1947944.564;2839835.542;Fixed;Establecido
5;SAN MARTIN DE SOCABAYA;1;CL01_PP_058;LOS SAUCES (PROLONGACIĂ“N CIRUELOS);-16.45666144;-71.51559883;-1948118.095;2839916.185;Fixed;Establecido
5;SAN MARTIN DE SOCABAYA;1;CL01_PP_059;PARQUE LAS ROCAS;-16.4557024;-71.52023859;-1947946.758;2839402.824;Mobile;Establecido
5;SAN MARTIN DE SOCABAYA;1;CL01_PP_060;CAPILLA DE LA CAMPINHA (AV. LA CAMPINHA CON LAS AZUCENAS);-16.4576619;-71.51878495;-1948195.316;2839541.915;Fixed;Establecido
5;SAN MARTIN DE SOCABAYA;1;CL01_PP_061;PARQUE COLEGIO EL ROSARIO (AV. PRIMAVERA CON LAS CAMPANILLAS);-16.45941135;-71.51827399;-1948407.279;2839576.901;Fixed;Establecido
5;SAN MARTIN DE SOCABAYA;1;CL01_PP_062;SAN CRISTOBAL;-16.46049361;-71.51935643;-1948520.716;2839440.02;Mobile;Establecido
5;SAN MARTIN DE SOCABAYA;1;CL01_PP_063;PARQUE DE LOS SERENOS;-16.45796252;-71.52102358;-1948202.315;2839284.225;Fixed;Propuesto
5;SAN MARTIN DE SOCABAYA;1;CL01_PP_064;COMPLEJO DEPORTIVO LA PALIZADA;-16.45681972;-71.52196599;-1948056.159;2839192.38;Moblie;Establecido
5;SAN MARTIN DE SOCABAYA;1;CL01_PP_065;PARQUE MIKEY;-16.45800656;-71.52391896;-1948170.875;2838955.46;Mobile;Establecido
5;SAN MARTIN DE SOCABAYA;1;CL01_PP_066;PARQUE EL TRIANGULO;-16.45926438;-71.52223533;-1948339.912;2839129.813;Fixed;Propuesto
5;SAN MARTIN DE SOCABAYA;1;CL01_PP_067;ANTENA TIM (AV. LA CAMPINHA CON PASAJE LOS EUCALIPTOS);-16.46033116;-71.52140296;-1948475.746;2839210.179;Fixed;Establecido
5;SAN MARTIN DE SOCABAYA;1;CL01_PP_068;COLEGIO PRIMARIO LA CAMPINHA 40639 ( CALLE MANGLARES CON AREQUIPA);-16.45992197;-71.52387822;-1948396.378;2838934.977;Fixed;Establecido
5;SAN MARTIN DE SOCABAYA;1;CL01_PP_069;SAN CRISTOBAL - LOZA DEPORTIVA (LA CAMPINHA);-16.46233453;-71.52305763;-1948690.141;2838996.369;Mobile;Establecido
5;SAN MARTIN DE SOCABAYA;1;CL01_PP_070;PARADERO FINAL DE MICROS LA CAMPINHA (CALLE LAS RETAMAS);-16.46184426;-71.52476428;-1948610.968;2838809.353;Fixed;Establecido
5;SAN MARTIN DE SOCABAYA;1;CL01_PP_071;PARQUE COLIBRI;-16.46060083;-71.52557287;-1948454.688;2838733.999;Fixed;Propuesto
5;SAN MARTIN DE SOCABAYA;1;CL01_PP_072;RECEPCIONES ROCOTO AREQUIPENHO (AV. SALAVERRY);-16.46148673;-71.52819501;-1948525.59;2838425.188;Mobile;Establecido
5;SAN MARTIN DE SOCABAYA;1;CL01_PP_073;COLEGIO SANTISIMO SALVADOR (AV. SALAVERRY);-16.45714735;-71.52925264;-1948002.521;2838362.162;Mobile;Establecido
5;SAN MARTIN DE SOCABAYA;1;CL01_PP_074;PARQUE DE LA PALOMA;-16.45549126;-71.52951198;-1947804.72;2838354.46;Mobile;Establecido
5;SAN MARTIN DE SOCABAYA;1;CL01_PP_075;COLISEO LARA;-16.45399815;-71.53123362;-1947607.584;2838178.872;Fixed;Establecido
5;SAN MARTIN DE SOCABAYA;1;CL01_PP_076;PARQUE LARA;-16.4518852;-71.53305364;-1947336.405;2838000.245;Fixed;Propuesto
5;SAN MARTIN DE SOCABAYA;1;CL01_PP_077;PLAZA DE BELLAPAMPA;-16.45096457;-71.53627356;-1947187.595;2837647.333;Fixed;Propuesto
5;SAN MARTIN DE SOCABAYA;1;CL01_PP_078;ESTADIO BELLAPAMPA (CALLE LOS GERANIOS CON ATAHUALPA);-16.44917155;-71.53821908;-1946952.425;2837450.283;Fixed;Establecido
5;SAN MARTIN DE SOCABAYA;1;CL01_PP_079;INTERSECCION CALLE TUMBES CON AV. LAS PENHAS;-16.4510191;-71.54004961;-1947146.31;2837218.626;Fixed;Establecido
5;SAN MARTIN DE SOCABAYA;1;CL01_PP_080;INTERSECCION CALLE SUCRE CON AV. PAISAJISTA;-16.45334694;-71.53876949;-1947435.889;2837333.252;Fixed;Establecido
5;SAN MARTIN DE SOCABAYA;1;CL01_PP_081;INTERSECCION LENCIO PRADO CON CALLE AMERICA;-16.45328407;-71.53650351;-1947457.127;2837590.907;Fixed;Establecido
5;SAN MARTIN DE SOCABAYA;1;CL01_PP_082;URB. LAS MAGNOLIAS - INGRESO PRINCIPAL;-16.45400628;-71.53504335;-1947560.401;2837746.952;Fixed;Establecido
5;SAN MARTIN DE SOCABAYA;1;CL01_PP_083;URB. ABELARDO QUINHONES CAPILLA;-16.45535284;-71.53722307;-1947691.023;2837482.268;Fixed;Establecido
5;SAN MARTIN DE SOCABAYA;1;CL01_PP_084;PUESTO DE SALUD JEAN FRECHET (PARQUE);-16.45593143;-71.53867208;-1947740.675;2837310.461;Fixed;Establecido
5;SAN MARTIN DE SOCABAYA;1;CL01_PP_085;ASOC. URBANIZACION;-16.45695832;-71.5377228;-1947873.28;2837404.609;Fixed;Propuesto
5;SAN MARTIN DE SOCABAYA;1;CL01_PP_086;URB. LOS CLAVELES (PARADERO FINAL DE COMBIS);-16.45884417;-71.54055401;-1948059.01;2837059.035;Fixed;Establecido
5;SAN MARTIN DE SOCABAYA;1;CL01_PP_087;CANCHA SINTETICA ECO;-16.46025421;-71.54122246;-1948216.175;2836964.815;Fixed;Propuesto
5;SAN MARTIN DE SOCABAYA;1;CL01_PP_088;parque los sapos;-16.449034;-71.534744;-1946980.215;2837846.022;Fixed;Propuesto
5;SAN MARTIN DE SOCABAYA;1;CL01_PP_089;PARQUE EL MISTIANO;-16.44901728;-71.5450808;-1946847.67;2836674.573;Mobile;Propuesto
5;SAN MARTIN DE SOCABAYA;1;CL01_PP_090;LA RINOCNADA (FRONTERA HUNTER);-16.45140442;-71.54922747;-1947075.693;2836173.369;Mobile;Establecido
5;SAN MARTIN DE SOCABAYA;1;CL01_PP_091;MIRADOR DE BELLAPAMPA - LOS MOLLES;-16.45958077;-71.54832341;-1948047.389;2836168.857;Mobile;Establecido
5;SAN MARTIN DE SOCABAYA;1;CL01_PP_092;2 cuadras abajo de la comisaria ciudad mi trabajo;-16.44892409;-71.53367971;-1946980.691;2837968.046;Fixed;Propuesto
5;SAN MARTIN DE SOCABAYA;1;CL01_PP_093;parque la pradera I;-16.45883944;-71.52821005;-1948214.452;2838458.168;Fixed;Propuesto
5;SAN MARTIN DE SOCABAYA;1;CL01_PP_094;2 cuadras del terminal de 3 de octubre;-16.46100795;-71.52383986;-1948524.424;2838925.093;Fixed;Propuesto
5;SAN MARTIN DE SOCABAYA;1;CL01_PP_095;parque virgendel carmen;-16.46097682;-71.52277774;-1948534.201;2839045.889;Fixed;Propuesto
5;SAN MARTIN DE SOCABAYA;1;CL01_PP_096;santa cruz;-16.46149367;-71.52122699;-1948614.526;2839214.887;Fixed;Propuesto
5;SAN MARTIN DE SOCABAYA;1;CL01_PP_097;parque escondido la campińa;-16.4579476;-71.51809451;-1948237.608;2839616.433;Fixed;Propuesto
5;SAN MARTIN DE SOCABAYA;1;CL01_PP_098;colegio la campińa;-16.4565197;-71.51738534;-1948078.848;2839715.535;Fixed;Propuesto
5;SAN MARTIN DE SOCABAYA;1;CL01_PP_099;2 cuadras del terminal de 4 de octubre;-16.45156254;-71.51486358;-1947528.433;2840066.363;Fixed;Propuesto
5;SAN MARTIN DE SOCABAYA;1;CL01_PP_100;polleria el juanito;-16.4541356;-71.51692011;-1947804.678;2839799.518;Fixed;Propuesto
5;SAN MARTIN DE SOCABAYA;1;CL01_PP_101;parque;-16.45534406;-71.51762179;-1947937.758;2839704.142;Fixed;Propuesto
5;SAN MARTIN DE SOCABAYA;1;CL01_PP_102;terminal de combis correcaminos;-16.45505281;-71.51805897;-1947898.017;2839658.403;Fixed;Propuesto
5;SAN MARTIN DE SOCABAYA;1;CL01_PP_103;loza deportiva la palizada;-16.45584442;-71.52122571;-1947950.958;2839289.071;Fixed;Propuesto
5;SAN MARTIN DE SOCABAYA;1;CL01_PP_104;cancha jesus nazareno;-16.44793059;-71.52084486;-1947026.172;2839435.922;Fixed;Propuesto
5;SAN MARTIN DE SOCABAYA;1;CL01_PP_105;loza deportiva residencial el golf;-16.45303892;-71.52619641;-1947558.574;2838762.393;Fixed;Propuesto
5;SAN MARTIN DE SOCABAYA;1;CL01_PP_106;loza deportiva corredores del golf;-16.45238177;-71.52647968;-1947477.803;2838738.893;Fixed;Propuesto
5;SAN MARTIN DE SOCABAYA;1;CL01_PP_107;parque trebol de santa clara;-16.44523503;-71.52748351;-1946625.65;2838718.688;Fixed;Propuesto
5;SAN MARTIN DE SOCABAYA;1;CL01_PP_108;calle coscollo;-16.44404448;-71.52708951;-1946490.783;2838778.935;Fixed;Propuesto
5;SAN MARTIN DE SOCABAYA;1;CL01_PP_109;grifo tasahuayo;-16.44102617;-71.52573358;-1946153.37;2838972.15;Fixed;Propuesto
5;SAN MARTIN DE SOCABAYA;1;CL01_PP_110;colegio san benito de palermo;-16.44021384;-71.52694266;-1946042.679;2838845.721;Fixed;Propuesto
5;SAN MARTIN DE SOCABAYA;1;CL01_PP_111;una cuadra del mercado san martin desocabaya;-16.44005869;-71.52864875;-1946002.907;2838654.352;Fixed;Propuesto
5;SAN MARTIN DE SOCABAYA;1;CL01_PP_112;parque los toritos;-16.43777946;-71.53006481;-1945717.302;2838523.653;Fixed;Propuesto
5;SAN MARTIN DE SOCABAYA;1;CL01_PP_113;"una cuadra ante de llegar al grifo J&amp;P";-16.43003821;-71.53628004;-1944729.566;2837920.339;Fixed;Propuesto
5;SAN MARTIN DE SOCABAYA;1;CL01_PP_114;parque pasaje san martin;-16.43117247;-71.53586483;-1944868.034;2837952.578;Fixed;Propuesto
5;SAN MARTIN DE SOCABAYA;1;CL01_PP_115;colegio 72 cerro salaverry;-16.43595675;-71.53667898;-1945419.712;2837797.729;Fixed;Propuesto
5;SAN MARTIN DE SOCABAYA;1;CL01_PP_116;cancha pedortiva ciudad mi trabajo;-16.44580452;-71.53515393;-1946595.656;2837841.772;Fixed;Propuesto
5;SAN MARTIN DE SOCABAYA;1;CL01_PP_117;colegio san martin de ocabaya;-16.44346788;-71.53016599;-1946384.192;2838437.746;Fixed;Propuesto
5;SAN MARTIN DE SOCABAYA;1;CL01_PP_118;Complejo Deportivo La Bombonera;-16.43943071;-71.53256876;-1945879.644;2838218.208;Fixed;Propuesto
5;SAN MARTIN DE SOCABAYA;1;CL01_PP_119;Santísima Cruz del Espíritu SantoCapilla;-16.44064015;-71.53342556;-1946010.885;2838105.261;Fixed;Propuesto
5;SAN MARTIN DE SOCABAYA;1;CL01_PP_120;I.E.I SAN MARTIN DE SOCABAYA;-16.4423155;-71.52971657;-1946254.509;2838503.773;Fixed;Propuesto
5;SAN MARTIN DE SOCABAYA;1;CL01_PP_121;Parque Zona B Bellapampa;-16.4538105;-71.53578864;-1947527.99;2837665.042;Fixed;Propuesto
6;JAVIER LLOSA GARCIA;2;CL02_PP_001;C.S. UPIS PAISAJISTA;-16.46160094;-71.55524849;-1948197.208;2835357.617;Fixed;Establecido
6;JAVIER LLOSA GARCIA;2;CL02_PP_002;IGLESIA UPIS PAISAJISTA;-16.46034034;-71.55430584;-1948061.062;2835480.936;Fixed;Propuesto
6;JAVIER LLOSA GARCIA;2;CL02_PP_003;GRIFO UPIS PAISAJISTA;-16.46029535;-71.55639207;-1948029.442;2835245.1;Fixed;Establecido
6;JAVIER LLOSA GARCIA;2;CL02_PP_004;UPIS PAISAJISTA MZ J D;-16.45918899;-71.55601251;-1947904.301;2835302.586;Fixed;Establecido
6;JAVIER LLOSA GARCIA;2;CL02_PP_005;LOSA DEPORTIVA TIRSO BORJA VIZCARRA;-16.45809044;-71.55480244;-1947790.56;2835454.089;Fixed;Propuesto
6;JAVIER LLOSA GARCIA;2;CL02_PP_006;CESMA;-16.45785512;-71.55429146;-1947769.374;2835515.077;Fixed;Establecido
6;JAVIER LLOSA GARCIA;2;CL02_PP_007;CALLE TIABAYA CON CALLE LA JOYA;-16.45668455;-71.55102812;-1947673.092;2835900.224;Fixed;Establecido
6;JAVIER LLOSA GARCIA;2;CL02_PP_008;AV. JOSE MARIA ARGUEDAS CON AV. DEAN VALDIVIA;-16.45652905;-71.55415241;-1947615.392;2835548.181;Fixed;Establecido
6;JAVIER LLOSA GARCIA;2;CL02_PP_009;PARQUE ARIAS ARAQUEZ;-16.45669106;-71.55568025;-1947615.136;2835372.913;Fixed;Establecido
6;JAVIER LLOSA GARCIA;2;CL02_PP_010;CAMPINHA ECOLOGICA 2;-16.45686061;-71.55806933;-1947604.897;2835099.946;Fixed;Establecido
6;JAVIER LLOSA GARCIA;2;CL02_PP_011;LOZA DEPORTIVA CAMPINHA ECOLOGICA;-16.45584;-71.55954421;-1947466.426;2834946.149;Fixed;Establecido
6;JAVIER LLOSA GARCIA;2;CL02_PP_012;LOZA DEPORTIVSA BUEN PANORAMA;-16.45456182;-71.56066001;-1947302.241;2834836.41;Fixed;Establecido
6;JAVIER LLOSA GARCIA;2;CL02_PP_013;EL MOLLECITO;-16.45207178;-71.56431788;-1946963.677;2834454.424;Mobile;Propuesto
6;JAVIER LLOSA GARCIA;2;CL02_PP_014;PARROQUIA VIRGEN DE LA CANDELARIA;-16.45142712;-71.56413485;-1946890.278;2834483.591;Fixed;Propuesto
6;JAVIER LLOSA GARCIA;2;CL02_PP_015;LOZA DEPORTIVA HUASACACHE;-16.4521718;-71.56258487;-1946997.28;2834649.513;Fixed;Establecido
6;JAVIER LLOSA GARCIA;2;CL02_PP_016;MIRADOR BUEN PANORAMA;-16.45336666;-71.5601576;-1947168.22;2834908.972;Fixed;Establecido
6;JAVIER LLOSA GARCIA;2;CL02_PP_017;AMPLIACION 13 DE AGOSTO;-16.45361889;-71.55924929;-1947209.302;2835008.612;Fixed;Propuesto
6;JAVIER LLOSA GARCIA;2;CL02_PP_018;COMPLEJO 13 DE AGOSTO;-16.45416493;-71.55839902;-1947284.156;2835097.832;Fixed;Establecido
6;JAVIER LLOSA GARCIA;2;CL02_PP_019;ESTADIO 2 DE JUNIO;-16.45294677;-71.55755936;-1947151.689;2835208.918;Fixed;Establecido
6;JAVIER LLOSA GARCIA;2;CL02_PP_020;CEMENTERIO DE HUNTER;-16.45383194;-71.55653192;-1947268.609;2835313.784;Fixed;Propuesto
6;JAVIER LLOSA GARCIA;2;CL02_PP_021;LOZA DEPORTIVA LEONES DEL SUR;-16.45287976;-71.55564903;-1947167.923;2835426.293;Fixed;Establecido
6;JAVIER LLOSA GARCIA;2;CL02_PP_022;AV. VELASCO ALVARADO CON AV. DEAN VALDIVIA;-16.45519753;-71.55594148;-1947436.435;2835362.84;Fixed;Establecido
6;JAVIER LLOSA GARCIA;2;CL02_PP_023;LOCAL SOCIAL ARIAS ARAGUEZ;-16.45477367;-71.55469188;-1947402.427;2835510.001;Fixed;Propuesto
6;JAVIER LLOSA GARCIA;2;CL02_PP_024;IGLESIA JESUS EL BUEN PASTOR;-16.45488004;-71.55405155;-1947423;2835581.179;Fixed;Propuesto
6;JAVIER LLOSA GARCIA;2;CL02_PP_025;LOZA DEPORTIVA ALTO ALIANZA;-16.45527108;-71.55287231;-1947483.809;2835709.709;Fixed;Establecido
6;JAVIER LLOSA GARCIA;2;CL02_PP_026;CALLE REVOLUCION CON CALLE 8 DE DICIEMBRE;-16.45291686;-71.55334694;-1947201.331;2835686.708;Fixed;Establecido
6;JAVIER LLOSA GARCIA;2;CL02_PP_027;ESTADIO JUAN VELASCO ALVARADO;-16.4518708;-71.55430156;-1947066.431;2835592.198;Fixed;Propuesto
6;JAVIER LLOSA GARCIA;2;CL02_PP_028;TRIANGULO PAMPAS DEL CUSCO;-16.45123762;-71.55624528;-1946967.543;2835380.191;Fixed;Establecido
6;JAVIER LLOSA GARCIA;2;CL02_PP_029;AV. SACSAYHUAMAN;-16.4503979;-71.5570957;-1946858.196;2835294.788;Fixed;Propuesto
6;JAVIER LLOSA GARCIA;2;CL02_PP_030;EXPARADERO LA MERCED;-16.45080141;-71.55942194;-1946876.239;2835025.877;Mobile;Establecido
6;JAVIER LLOSA GARCIA;2;CL02_PP_031;13 DE AGOSTO, UPIS LA MERCED Y AMPLIACION UPIS LA MERCED;-16.45109977;-71.56013721;-1946902.256;2834940.916;Fixed;Establecido
6;JAVIER LLOSA GARCIA;2;CL02_PP_032;LOZA DEPORTIVA LA MERCED;-16.44929986;-71.56107766;-1946679.014;2834857.86;Fixed;Establecido
6;JAVIER LLOSA GARCIA;2;CL02_PP_033;AMPLIACION PAMPAS DEL CUZCO;-16.44753667;-71.56421733;-1946432.355;2834525.08;Fixed;Propuesto
6;JAVIER LLOSA GARCIA;2;CL02_PP_034;CAPILLA DE PAMPAS DEL CUSCO;-16.44813953;-71.5658665;-1946482.36;2834330.305;Fixed;Propuesto
6;JAVIER LLOSA GARCIA;2;CL02_PP_035;PLAZOLETA DE PAMPAS DEL CUSCO;-16.44794479;-71.56615024;-1946455.914;2834300.694;Fixed;Propuesto
6;JAVIER LLOSA GARCIA;2;CL02_PP_036;LOSA DEPORTIVA PAMPAS DEL CUZCO;-16.44655662;-71.56529578;-1946303.664;2834415.664;Fixed;Propuesto
6;JAVIER LLOSA GARCIA;2;CL02_PP_037;ESTADIO PAMPAS DEL CUSCO;-16.44644628;-71.56397915;-1946307.305;2834566.32;Fixed;Establecido
6;JAVIER LLOSA GARCIA;2;CL02_PP_038;PARQUE AMPLIACION PAMPAS DEL CUSCO;-16.447993;-71.56158465;-1946519.143;2834817.481;Fixed;Establecido
6;JAVIER LLOSA GARCIA;2;CL02_PP_039;BODEGITA ROMA;-16.44732754;-71.56184162;-1946437.752;2834797.054;Fixed;Propuesto
6;JAVIER LLOSA GARCIA;2;CL02_PP_040;CANCHA DEPORTIVA LOMA VERDE;-16.44753335;-71.56052505;-1946478.525;2834943.574;Fixed;Propuesto
6;JAVIER LLOSA GARCIA;2;CL02_PP_041;SANTA MARTHA;-16.44694153;-71.56114966;-1946401.145;2834880.519;Fixed;Establecido
6;JAVIER LLOSA GARCIA;2;CL02_PP_042;13 DE MAYO - BELEN;-16.44644343;-71.56065;-1946348.95;2834943.656;Fixed;Establecido
6;JAVIER LLOSA GARCIA;2;CL02_PP_043;JR. BELEN 13 DE MAYO;-16.4467672;-71.55989317;-1946396.517;2835025.199;Mobile;Establecido
6;JAVIER LLOSA GARCIA;2;CL02_PP_044;AV. OLLANTAYTAMBO;-16.44783863;-71.55948939;-1946527.439;2835056.958;Fixed;Establecido
6;JAVIER LLOSA GARCIA;2;CL02_PP_045;LOSA DEPORTIVA AVIS LOS ANGELES;-16.44633409;-71.55859827;-1946361.984;2835177.616;Fixed;Propuesto
6;JAVIER LLOSA GARCIA;2;CL02_PP_046;PARQUE HUAYNA CAPAC;-16.44715026;-71.55737106;-1946473.313;2835306.033;Fixed;Establecido
6;JAVIER LLOSA GARCIA;2;CL02_PP_047;CEO UNSA;-16.4487213;-71.5566803;-1946666.533;2835363.784;Fixed;Establecido
6;JAVIER LLOSA GARCIA;2;CL02_PP_048;PEDRO DIAZ CANSECO CON ZARUMILLA;-16.45025671;-71.55533763;-1946863.794;2835495.881;Fixed;Establecido
6;JAVIER LLOSA GARCIA;2;CL02_PP_049;CALLE SAN ROMAN CON CALLE UCAYALI;-16.44997152;-71.55415079;-1946845.276;2835634.12;Fixed;Establecido
6;JAVIER LLOSA GARCIA;2;CL02_PP_050;PARQUE HEROES DEL CENEPA;-16.45102512;-71.55218963;-1946993.762;2835842.611;Fixed;Establecido
6;JAVIER LLOSA GARCIA;2;CL02_PP_051;PARQUE ANDRES AVELINO CACERES;-16.45158953;-71.55184394;-1947064.412;2835874.408;Fixed;Propuesto
6;JAVIER LLOSA GARCIA;2;CL02_PP_052;IGLESIA DE JESUCRISTO DE LOS SANTOS DE LOS ULTIMOS DIAS;-16.45267346;-71.55082149;-1947204.618;2835976.111;Fixed;Propuesto
6;JAVIER LLOSA GARCIA;2;CL02_PP_053;LOSA DEPORTIVA AUGUSTO FREYRE GARCIA;-16.45353391;-71.54978035;-1947318.815;2836082.853;Fixed;Propuesto
6;JAVIER LLOSA GARCIA;2;CL02_PP_054;AV. MIGUEL GRAU CON CALLE UGARTE;-16.45202611;-71.55009671;-1947137.737;2836066.72;Fixed;Establecido
6;JAVIER LLOSA GARCIA;2;CL02_PP_055;CAPILLA AUGUSTO FREYRE;-16.45064072;-71.55037813;-1946971.477;2836052.946;Fixed;Establecido
6;JAVIER LLOSA GARCIA;2;CL02_PP_056;AV. UNION CON CALLE HUASCAR;-16.44977929;-71.54916879;-1946885.567;2836201.274;Fixed;Establecido
6;JAVIER LLOSA GARCIA;2;CL02_PP_057;P.S. DANIEL ALCIDES CARRION;-16.44872352;-71.55074251;-1946741.711;2836036.72;Fixed;Establecido
6;JAVIER LLOSA GARCIA;2;CL02_PP_058;CALLE SAN ROMAN CON CALLE SAN MIGUEL DE PIURA;-16.44897729;-71.55346387;-1946737.177;2835724.972;Fixed;Establecido
6;JAVIER LLOSA GARCIA;2;CL02_PP_059;NUEVA GENERACION CALLE BATANEROS;-16.44717554;-71.55307526;-1946530.474;2835792.572;Fixed;Establecido
6;JAVIER LLOSA GARCIA;2;CL02_PP_060;PARQUE MILAGROS;-16.4465059;-71.55391824;-1946441.193;2835705.785;Fixed;Establecido
6;JAVIER LLOSA GARCIA;2;CL02_PP_061;C.S. HUNTER;-16.44541962;-71.55416531;-1946310.499;2835691.982;Fixed;Establecido
6;JAVIER LLOSA GARCIA;2;CL02_PP_062;MERCADO FRAY MARTIN DE PORRES;-16.44662094;-71.55559514;-1946433.551;2835514.227;Fixed;Establecido
6;JAVIER LLOSA GARCIA;2;CL02_PP_063;I.E MARIANO MELGAR;-16.44734396;-71.55583646;-1946515.42;2835477.425;Fixed;Propuesto
6;JAVIER LLOSA GARCIA;2;CL02_PP_064;AV. BERLIN CON CALLE LISBOA;-16.44548431;-71.55621671;-1946292.22;2835458.637;Fixed;Establecido
6;JAVIER LLOSA GARCIA;2;CL02_PP_065;IE JACOBO HUNTER;-16.44413137;-71.55659684;-1946128.532;2835433.237;Fixed;Propuesto
6;JAVIER LLOSA GARCIA;2;CL02_PP_066;JR. BUENA VISTA CON AV. BRASILIA;-16.44506777;-71.55778368;-1946223.537;2835286.486;Fixed;Establecido
6;JAVIER LLOSA GARCIA;2;CL02_PP_067;CALLE BUENOS AIRES CON AV. BRASILIA;-16.44552218;-71.55829506;-1946270.455;2835222.591;Fixed;Establecido
6;JAVIER LLOSA GARCIA;2;CL02_PP_068;CALLE ALFONSO UGARTE CON CALLE CHILE;-16.44357836;-71.56066563;-1946012.278;2834979.321;Fixed;Establecido
6;JAVIER LLOSA GARCIA;2;CL02_PP_069;CALLE MICAELA BASTIDAS PRONOI;-16.44328856;-71.56146675;-1945968.143;2834892.312;Mobile;Establecido
6;JAVIER LLOSA GARCIA;2;CL02_PP_070;PARQUE JUVENTUD UNIDA;-16.44256326;-71.56061564;-1945893.695;2834998.249;Fixed;Establecido
6;JAVIER LLOSA GARCIA;2;CL02_PP_071;JOSE CARLOS MARIATEGUI Y COOPERATIVA LOS BALCONES;-16.44067736;-71.56227484;-1945651.297;2834834.838;Mobile;Establecido
6;JAVIER LLOSA GARCIA;2;CL02_PP_072;BELEN ZONA E;-16.44013002;-71.56123812;-1945600.085;2834959.485;Fixed;Establecido
6;JAVIER LLOSA GARCIA;2;CL02_PP_073;CALLE SANTOS CHOCANO CON CALLE FRANCISCO MOSTAJO;-16.43914084;-71.56087885;-1945488.445;2835013.125;Mobile;Establecido
6;JAVIER LLOSA GARCIA;2;CL02_PP_074;ALTO CAMINOS DEL INCA;-16.43839547;-71.56268366;-1945378.16;2834818.307;Fixed;Propuesto
6;JAVIER LLOSA GARCIA;2;CL02_PP_075;CAMINOS DEL INCA AMPLIACION CAMINOS DEL INCA Y ALTOS CAMINO DEL INCA;-16.43744313;-71.56232599;-1945270.825;2834871.282;Fixed;Establecido
6;JAVIER LLOSA GARCIA;2;CL02_PP_076;CALLE CARLOS MANCHEGO CON AV. LAS AMERICAS;-16.43784244;-71.56143274;-1945328.978;2834967.307;Mobile;Establecido
6;JAVIER LLOSA GARCIA;2;CL02_PP_077;ASOCIACION VISTA ALEGRE;-16.43566767;-71.56275754;-1945056.876;2834845.555;Fixed;Propuesto
6;JAVIER LLOSA GARCIA;2;CL02_PP_078;LOSA DEPORTIVA 28 DE JULIO;-16.43652726;-71.56338816;-1945149.878;2834762.857;Fixed;Propuesto
6;JAVIER LLOSA GARCIA;2;CL02_PP_079;VISTA ALEGRE (FRENTE AL GRIFO);-16.43522186;-71.56226877;-1945010.679;2834906.774;Fixed;Establecido
6;JAVIER LLOSA GARCIA;2;CL02_PP_080;CRUCE LA COLINA;-16.43720384;-71.56006682;-1945271.197;2835130.46;Fixed;Propuesto
6;JAVIER LLOSA GARCIA;2;CL02_PP_081;OVALO HUNTER;-16.4400301;-71.55906543;-1945615.741;2835207.039;Fixed;Establecido
6;JAVIER LLOSA GARCIA;2;CL02_PP_082;PARQUE QUINHONES;-16.43859548;-71.55764367;-1945465.18;2835386.923;Fixed;Establecido
6;JAVIER LLOSA GARCIA;2;CL02_PP_083;AV. IRLANDA CON AV. ITALIA;-16.43793005;-71.55573407;-1945411.106;2835612.054;Fixed;Establecido
6;JAVIER LLOSA GARCIA;2;CL02_PP_084;CALLE GIRASOLES;-16.43821065;-71.55364618;-1945470.388;2835845.035;Fixed;Propuesto
6;JAVIER LLOSA GARCIA;2;CL02_PP_085;PARQUE AREQUIPA;-16.4402349;-71.55485829;-1945692.842;2835681.202;Fixed;Propuesto
6;JAVIER LLOSA GARCIA;2;CL02_PP_086;MERCADO DE HUNTER;-16.44019774;-71.55568887;-1945678.004;2835587.547;Fixed;Establecido
6;JAVIER LLOSA GARCIA;2;CL02_PP_087;MUNICIPALIDAD DE JACOBO HUNTER;-16.44153087;-71.55803302;-1945805.012;2835304.444;Fixed;Propuesto
6;JAVIER LLOSA GARCIA;2;CL02_PP_088;COLEGIO JEAN HARZIC;-16.44218378;-71.55651979;-1945900.773;2835467.42;Fixed;Establecido
6;JAVIER LLOSA GARCIA;2;CL02_PP_089;AV. BRASILIA CON AV. VINHA DEL MAR;-16.44321272;-71.55584066;-1946030.181;2835530.946;Fixed;Establecido
6;JAVIER LLOSA GARCIA;2;CL02_PP_090;COMISARIA HUNTER;-16.44140782;-71.55502714;-1945828.465;2835646.737;Fixed;Establecido
6;JAVIER LLOSA GARCIA;2;CL02_PP_091;I.E.P. MARIANISTA PRIMARIA;-16.44254796;-71.55349253;-1945981.723;2835805.77;Fixed;Propuesto
6;JAVIER LLOSA GARCIA;2;CL02_PP_092;I.E.P SANTA SOFIA;-16.4434555;-71.55436962;-1946077.247;2835694.499;Fixed;Propuesto
6;JAVIER LLOSA GARCIA;2;CL02_PP_093;CALLE EGIPTO CON CALLE MONTEVIDEO;-16.44353057;-71.55347684;-1946097.325;2835794.705;Fixed;Establecido
6;JAVIER LLOSA GARCIA;2;CL02_PP_094;PARQUE QUEQUENHA;-16.44505703;-71.55253316;-1946288.504;2835881.708;Mobile;Establecido
6;JAVIER LLOSA GARCIA;2;CL02_PP_095;COLEGIO MARIANISTA SECUNDARIA;-16.44412358;-71.55172996;-1946189.007;2835984.945;Fixed;Propuesto
6;JAVIER LLOSA GARCIA;2;CL02_PP_096;LA HABANA CON SAN SALVADOR;-16.44423876;-71.55021284;-1946221.674;2836155.391;Fixed;Establecido
6;JAVIER LLOSA GARCIA;2;CL02_PP_097;PARQUE EN CALLE CARTAGENA CON JERUSALEN;-16.4455262;-71.55055464;-1946368.567;2836099.819;Fixed;Establecido
6;JAVIER LLOSA GARCIA;2;CL02_PP_098;I.E JUAN PABLO VIZCARDO Y GUZMAN;-16.44625025;-71.551477;-1946441.967;2835985.813;Fixed;Propuesto
6;JAVIER LLOSA GARCIA;2;CL02_PP_099;CALLE MIGUEL GRAU CON CALLE BOLOGNESI;-16.44781939;-71.55064077;-1946636.809;2836060.074;Fixed;Establecido
6;JAVIER LLOSA GARCIA;2;CL02_PP_100;LOS ROSALES;-16.44776607;-71.54916907;-1946649.117;2836227.571;Fixed;Establecido
6;JAVIER LLOSA GARCIA;2;CL02_PP_101;PARQUE VILLA SAN ISIDRO;-16.4481318;-71.54797729;-1946707.112;2836357.865;Fixed;Establecido
6;JAVIER LLOSA GARCIA;2;CL02_PP_102;AV. LA AMISTAD CON EL MISTIANO;-16.44714578;-71.54735603;-1946599.147;2836441.174;Fixed;Establecido
6;JAVIER LLOSA GARCIA;2;CL02_PP_103;CRUCE LOS BOSQUES;-16.44823584;-71.54174399;-1946798.014;2837062.997;Fixed;Propuesto
6;JAVIER LLOSA GARCIA;2;CL02_PP_104;ASOCIACION LOS BOSQUES;-16.44322719;-71.54518782;-1946166.272;2836738.17;Fixed;Propuesto
6;JAVIER LLOSA GARCIA;2;CL02_PP_105;AV. LA FLORIDA - LOS MOLLES;-16.44305241;-71.54816096;-1946108.228;2836403.466;Mobile;Establecido
6;JAVIER LLOSA GARCIA;2;CL02_PP_106;AV. LOS ANGELES;-16.4407711;-71.55111046;-1945803.083;2836098.981;Fixed;Propuesto
6;JAVIER LLOSA GARCIA;2;CL02_PP_107;PARQUE DE LA AMISTAD;-16.43903079;-71.54940429;-1945620.209;2836315.113;Mobile;Propuesto
6;JAVIER LLOSA GARCIA;2;CL02_PP_108;LA CAPILLA;-16.44038363;-71.5468179;-1945811.727;2836590.587;Fixed;Establecido
6;JAVIER LLOSA GARCIA;2;CL02_PP_109;COMPLEJO DEPORTIVO VILLA CHILPINA;-16.43972285;-71.54314601;-1945780.448;2837015.427;Fixed;Propuesto
6;JAVIER LLOSA GARCIA;2;CL02_PP_110;VILLA JARDIN;-16.43921895;-71.54184282;-1945737.708;2837169.731;Fixed;Establecido
6;JAVIER LLOSA GARCIA;2;CL02_PP_111;LOSA DEPORTIVA LAS PENHAS;-16.44003986;-71.53920145;-1945867.462;2837458.398;Fixed;Propuesto
6;JAVIER LLOSA GARCIA;2;CL02_PP_112;ASOCIACION VILLA JARDIN;-16.43703589;-71.53908977;-1945516.04;2837510.342;Fixed;Propuesto
6;JAVIER LLOSA GARCIA;2;CL02_PP_113;VILLA SALAVERRY;-16.43778319;-71.54255416;-1945560.097;2837107.873;Fixed;Establecido
6;JAVIER LLOSA GARCIA;2;CL02_PP_114;RESTAURANTE EL ERIZO;-16.43336036;-71.55184649;-1944923.43;2836112.393;Mobile;Propuesto
6;JAVIER LLOSA GARCIA;2;CL02_PP_115;IGLESIA BELLAVISTA;-16.42908976;-71.55107933;-1944431.525;2836255.138;Mobile;Establecido
6;JAVIER LLOSA GARCIA;2;CL02_PP_116;LAS GARDENIAS;-16.43093366;-71.54874493;-1944677.522;2836495.66;Fixed;Establecido
6;JAVIER LLOSA GARCIA;2;CL02_PP_117;ENTRADA VELLAVISTA;-16.42790404;-71.54759672;-1944336.167;2836665.392;Fixed;Propuesto
6;JAVIER LLOSA GARCIA;2;CL02_PP_118;ASOCIACION BELLAVISTA;-16.42364774;-71.5431804;-1943891.93;2837221.619;Fixed;Propuesto
6;JAVIER LLOSA GARCIA;2;CL02_PP_119;SENATI;-16.42063277;-71.54674024;-1943492.935;2836857.45;Mobile;Propuesto
6;JAVIER LLOSA GARCIA;2;CL02_PP_120;PARQUE INOCENTES;-16.41788751;-71.54973558;-1943132.752;2836553.738;Fixed;Propuesto
6;JAVIER LLOSA GARCIA;2;CL02_PP_121;COCHERA COLEGIO SAN JOSE;-16.42333312;-71.55154279;-1943749.571;2836277.779;Fixed;Propuesto
6;JAVIER LLOSA GARCIA;2;CL02_PP_122;ESTACION FERROFIARIA PARQUE INDUSTRIAL;-16.42259278;-71.55474059;-1943622.326;2835924.957;Fixed;Propuesto
6;JAVIER LLOSA GARCIA;2;CL02_PP_123;PARQUE VILLA DON GENARO;-16.42630225;-71.55623699;-1944039.137;2835706.91;Fixed;Propuesto
6;JAVIER LLOSA GARCIA;2;CL02_PP_124;PARQUE MARIA MONSERRAT;-16.42772314;-71.55736528;-1944191.797;2835560.467;Fixed;Propuesto
6;JAVIER LLOSA GARCIA;2;CL02_PP_125;COLEGIO NUESTRA  SENHORA DE LOURDES;-16.42867354;-71.55787573;-1944296.985;2835490.201;Fixed;Propuesto
6;JAVIER LLOSA GARCIA;2;CL02_PP_126;PARROQUIA SANTISIMA TRINIDAD TINGO;-16.43167642;-71.56129596;-1944606.556;2835063.326;Fixed;Propuesto
6;JAVIER LLOSA GARCIA;2;CL02_PP_127;POLIDEPORTIVO MONTESSORI;-16.4339981;-71.5608889;-1944884.347;2835079.15;Fixed;Propuesto
6;JAVIER LLOSA GARCIA;2;CL02_PP_128;PARQUE ACUATICO TINGO;-16.43166178;-71.5632156;-1944580.65;2834845.94;Fixed;Propuesto
6;JAVIER LLOSA GARCIA;2;CL02_PP_129;PARQUE MORRO DE ARICA;-16.43320387;-71.5632448;-1944761.387;2834822.498;Fixed;Propuesto
6;JAVIER LLOSA GARCIA;2;CL02_PP_130;CALLE MORRO DE ARICA CON CALLE LOS ROSALES;-16.43312792;-71.56435645;-1944738.461;2834697.495;Fixed;Establecido
6;JAVIER LLOSA GARCIA;2;CL02_PP_131;PUESTO DE SALUD CAMINOS DEL INCA;-16.43451021;-71.56400584;-1944905.213;2834719.186;Fixed;Propuesto
6;JAVIER LLOSA GARCIA;2;CL02_PP_132;28 DE JULIO Y LOS BALCONES;-16.43768168;-71.56497779;-1945265.42;2834567.617;Fixed;Establecido
6;JAVIER LLOSA GARCIA;2;CL02_PP_133;LOS MOLLES;-16.4409458;-71.56550938;-1945642.053;2834464.744;Fixed;Establecido
6;JAVIER LLOSA GARCIA;2;CL02_PP_134;OVALO TINGO GRANDE;-16.45756106;-71.57478595;-1947476.299;2833196.44;Fixed;Propuesto
6;JAVIER LLOSA GARCIA;2;CL02_PP_135;COSTA VERDE;-16.45887145;-71.57935899;-1947572.525;2832661.133;Fixed;Establecido
6;JAVIER LLOSA GARCIA;2;CL02_PP_136;HUAYRONDO;-16.45859157;-71.58277919;-1947496.552;2832277.243;Fixed;Establecido
6;JAVIER LLOSA GARCIA;2;CL02_PP_137;ASOCIACION TINGO GRANDE;-16.459969;-71.58265041;-1947659.917;2832273.845;Fixed;Propuesto
6;JAVIER LLOSA GARCIA;2;CL02_PP_138;av. paisajista;-16.45544822;-71.56147235;-1947396.089;2834732.762;Fixed;Propuesto
6;JAVIER LLOSA GARCIA;2;CL02_PP_139;entrada de tingro grande;-16.44940781;-71.56748126;-1946610.943;2834130.739;Fixed;Propuesto
6;JAVIER LLOSA GARCIA;2;CL02_PP_140;calle diag. pampas del cusco;-16.44700582;-71.56693925;-1946335.698;2834223.542;Fixed;Propuesto
6;JAVIER LLOSA GARCIA;2;CL02_PP_141;cruze pampas del cusco;-16.44507312;-71.56508021;-1946132.163;2834459.475;Fixed;Propuesto
6;JAVIER LLOSA GARCIA;2;CL02_PP_142;derco center roberts;-16.42085106;-71.5511306;-1943463.247;2836356.91;Fixed;Propuesto
6;JAVIER LLOSA GARCIA;2;CL02_PP_143;urb. villa los girasoles;-16.42408466;-71.5495976;-1943862.353;2836488.465;Fixed;Propuesto
6;JAVIER LLOSA GARCIA;2;CL02_PP_144;alto caminos del inca;-16.43518285;-71.56362118;-1944989.055;2834754.001;Fixed;Propuesto
6;JAVIER LLOSA GARCIA;2;CL02_PP_145;colegio pedro villena;-16.44984438;-71.55870695;-1946772.864;2835119.418;Fixed;Propuesto
6;JAVIER LLOSA GARCIA;2;CL02_PP_146;rest. campestre mi chosita;-16.4348338;-71.55114748;-1945105.296;2836172.374;Fixed;Propuesto
6;JAVIER LLOSA GARCIA;2;CL02_PP_147;complejo deportivo puma;-16.43646234;-71.54471041;-1945377.755;2836880.728;Fixed;Propuesto
6;JAVIER LLOSA GARCIA;2;CL02_PP_148;rest. campestre don domingo;-16.43851212;-71.54544703;-1945609.212;2836770.437;Fixed;Propuesto
6;JAVIER LLOSA GARCIA;2;CL02_PP_149;espaldas del rest. el guińapo arequipa;-16.43883293;-71.54087175;-1945704.623;2837284.851;Fixed;Propuesto
6;JAVIER LLOSA GARCIA;2;CL02_PP_150;espalda del cementerio de hunter;-16.45598985;-71.55744193;-1947510.552;2835182.434;Fixed;Propuesto
6;JAVIER LLOSA GARCIA;2;CL02_PP_151;las peńas;-16.44765324;-71.5439783;-1946701.381;2836817.375;Fixed;Propuesto
6;JAVIER LLOSA GARCIA;2;CL02_PP_152;parque mundo;-16.4464765;-71.54943451;-1946494.312;2836214.35;Fixed;Propuesto
6;JAVIER LLOSA GARCIA;2;CL02_PP_153;loza deportiva el carmen;-16.4452165;-71.54831579;-1946360.443;2836357.622;Fixed;Propuesto
6;JAVIER LLOSA GARCIA;2;CL02_PP_154;parque el molle puerta 2;-16.4439072;-71.54922437;-1946195.205;2836271.761;Fixed;Propuesto
6;JAVIER LLOSA GARCIA;2;CL02_PP_155;recta del puesto de salud chilpinilla;-16.44018504;-71.55196116;-1945723.523;2836010.22;Fixed;Propuesto
6;JAVIER LLOSA GARCIA;2;CL02_PP_156;calle paris con italia;-16.4403416;-71.55695917;-1945678.881;2835441.691;Fixed;Propuesto
6;JAVIER LLOSA GARCIA;2;CL02_PP_157;calle micaela bastidas;-16.44464905;-71.55949763;-1946152.748;2835097.706;Fixed;Propuesto
6;JAVIER LLOSA GARCIA;2;CL02_PP_158;calle italia con berlin;-16.44293216;-71.55878814;-1945960.061;2835200.551;Fixed;Propuesto
6;JAVIER LLOSA GARCIA;2;CL02_PP_159;calle alfonso ugarte;-16.44165238;-71.56177042;-1945772.162;2834879.27;Fixed;Propuesto
6;JAVIER LLOSA GARCIA;2;CL02_PP_160;parque la colina;-16.43623723;-71.56138812;-1945141.022;2834993.327;Fixed;Propuesto
6;JAVIER LLOSA GARCIA;2;CL02_PP_161;loza deportiva la colina;-16.43836532;-71.55949177;-1945414.852;2835180.465;Fixed;Propuesto
6;JAVIER LLOSA GARCIA;2;CL02_PP_162;LOSA DEPORTIVA DE AVELINO CÁCERES;-16.45273082;-71.55245403;-1947190.75;2835790.338;Fixed;Propuesto
6;JAVIER LLOSA GARCIA;2;CL02_PP_163;CALLE GIBRALTAR;-16.45786016;-71.5564773;-1947742.376;2835267.294;Fixed;Propuesto
7;VICTOR RAUL HINOJOSA;3;CL03_PP_001;VIRGEN DE CHAPI;-16.45381419;-71.51413768;-1947802.115;2840119.138;Fixed;Establecido 
7;VICTOR RAUL HINOJOSA;3;CL03_PP_002;PARQUE LAS ESMERALDAS;-16.45291156;-71.51282327;-1947712.708;2840279.968;Fixed;Propuesto
7;VICTOR RAUL HINOJOSA;3;CL03_PP_003;FUNDO LA RINCONADA;-16.45146929;-71.51048255;-1947572.892;2840564.218;Fixed;Propuesto
7;VICTOR RAUL HINOJOSA;3;CL03_PP_004;SOL Y LUNA - COPACABANA;-16.45119416;-71.50936183;-1947554.749;2840694.871;Mobile;Establecido 
7;VICTOR RAUL HINOJOSA;3;CL03_PP_005;BUENA VISTA;-16.45095024;-71.5121971;-1947490.231;2840376.659;Fixed;Establecido 
7;VICTOR RAUL HINOJOSA;3;CL03_PP_006;CENTRO DE SALUD LA ESMERALDA;-16.44998906;-71.51238336;-1947374.964;2840368.142;Fixed;Establecido 
7;VICTOR RAUL HINOJOSA;3;CL03_PP_007;IE. JUAN PABLO II;-16.44948471;-71.51350874;-1947301.485;2840247.177;Fixed;Propuesto
7;VICTOR RAUL HINOJOSA;3;CL03_PP_008;PARQUE SANTA MONICA;-16.44861152;-71.51390386;-1947193.913;2840213.828;Fixed;Propuesto
7;VICTOR RAUL HINOJOSA;3;CL03_PP_009;SANTA MONICA;-16.44763715;-71.51429745;-1947074.477;2840181.978;Fixed;Establecido
7;VICTOR RAUL HINOJOSA;3;CL03_PP_010;PARQUE RICARDO PALMA;-16.44809172;-71.51582632;-1947108.544;2840002.707;Fixed;Propuesto
7;VICTOR RAUL HINOJOSA;3;CL03_PP_011;LOSA DEPORTIVA SAN AGUSTIN;-16.44766031;-71.51752347;-1947036.41;2839815.97;Fixed;Propuesto
7;VICTOR RAUL HINOJOSA;3;CL03_PP_012;LA BRENHA;-16.44727121;-71.51632715;-1947005.827;2839956.684;Fixed;Establecido
7;VICTOR RAUL HINOJOSA;3;CL03_PP_013;CANCHA DE RICARDO PALMA;-16.44708325;-71.51539459;-1946995.538;2840064.863;Fixed;Propuesto
7;VICTOR RAUL HINOJOSA;3;CL03_PP_014;PARQUE VIRGEN DE COPACABANA;-16.44640499;-71.51383515;-1946935.58;2840250.53;Fixed;Propuesto
7;VICTOR RAUL HINOJOSA;3;CL03_PP_015;CAPILLA SAN MIGUELITO;-16.44526644;-71.51620786;-1946771.836;2839996.47;Fixed;Propuesto
7;VICTOR RAUL HINOJOSA;3;CL03_PP_016;C.S. VICTOR RAUL HINOJOZA;-16.44484333;-71.51541691;-1946732.133;2840091.676;Fixed;Establecido
7;VICTOR RAUL HINOJOSA;3;CL03_PP_017;ESTADIO SIMON BOLIVAR;-16.44470445;-71.5129649;-1946746.818;2840371.466;Fixed;Propuesto
7;VICTOR RAUL HINOJOSA;3;CL03_PP_018;PARROQUIA SAN MIGUEL SIMON BOLIVAR;-16.44484595;-71.51227237;-1946772.197;2840448.121;Fixed;Propuesto
7;VICTOR RAUL HINOJOSA;3;CL03_PP_019;PARQUE TUPAC AMARU (TERMINAL DE COMBIS);-16.44385955;-71.50726651;-1946719.623;2841028.547;Mobile;Establecido
7;VICTOR RAUL HINOJOSA;3;CL03_PP_020;QUINTA SANTA LURDES;-16.44199394;-71.50572692;-1946519.929;2841227.54;Fixed;Establecido
7;VICTOR RAUL HINOJOSA;3;CL03_PP_021;LOSA DEPORTIVA COLON;-16.44123848;-71.50528939;-1946436.713;2841287.043;Fixed;Propuesto
7;VICTOR RAUL HINOJOSA;3;CL03_PP_022;COMISARIA SIMON BOLIVAR;-16.44333672;-71.51369292;-1946576.944;2840306.852;Fixed;Propuesto
7;VICTOR RAUL HINOJOSA;3;CL03_PP_023;PARQUE SIMON BOLIVAR;-16.44346;-71.51444054;-1946581.975;2840220.483;Fixed;Establecido
7;VICTOR RAUL HINOJOSA;3;CL03_PP_024;URB. EL TEJAR;-16.44229615;-71.51598795;-1946425.697;2840060.306;Fixed;Establecido
7;VICTOR RAUL HINOJOSA;3;CL03_PP_025;COLEGIO DE ARQUITECTOS;-16.43964689;-71.51024255;-1946187.11;2840746.35;Fixed;Propuesto
7;VICTOR RAUL HINOJOSA;3;CL03_PP_026;COLEGIO PARTICULAR ST ANDREW;-16.43702884;-71.50741416;-1945915.31;2841101.308;Fixed;Propuesto
7;VICTOR RAUL HINOJOSA;3;CL03_PP_027;COLEGIO ALFRED BINET;-16.43482071;-71.50972169;-1945626.739;2840868.617;Fixed;Propuesto
7;VICTOR RAUL HINOJOSA;3;CL03_PP_028;PARQUE 3 DE OCTUBRE;-16.44216198;-71.51931452;-1946367.892;2839684.951;Mobile;Establecido
7;VICTOR RAUL HINOJOSA;3;CL03_PP_029;CAMPO DEPORTIVO 3 DE OCTUBRE;-16.44254925;-71.52021507;-1946402.004;2839577.791;Fixed;Propuesto
7;VICTOR RAUL HINOJOSA;3;CL03_PP_030;PARQUE DE COMITE 5;-16.44187815;-71.52130761;-1946309.365;2839462.727;Fixed;Propuesto
7;VICTOR RAUL HINOJOSA;3;CL03_PP_031;PARQUE DE TASAHUAYO;-16.44148344;-71.52111395;-1946265.447;2839489.849;Fixed;Propuesto
7;VICTOR RAUL HINOJOSA;3;CL03_PP_032;PARQUE LOS FRANCOS - AMAUTA;-16.44072909;-71.52135454;-1946173.797;2839472.451;Fixed;Establecido 
7;VICTOR RAUL HINOJOSA;3;CL03_PP_033;PARQUE URBANIZACION AMAUTA;-16.43996435;-71.52212818;-1946074.19;2839394.761;Fixed;Propuesto
7;VICTOR RAUL HINOJOSA;3;CL03_PP_034;PARQUE AMAUTA;-16.44114115;-71.52256944;-1946206.85;2839329.333;Fixed;Propuesto
7;VICTOR RAUL HINOJOSA;3;CL03_PP_035;PARQUE LA OROYA;-16.44072083;-71.52395249;-1946140.004;2839178.052;Fixed;Propuesto
7;VICTOR RAUL HINOJOSA;3;CL03_PP_036;COLEGIO BENITO DE PALERMO;-16.44150829;-71.52471433;-1946222.878;2839081.381;Fixed;Propuesto
7;VICTOR RAUL HINOJOSA;3;CL03_PP_037;PARQUE TUPAC AMARU;-16.44052043;-71.52494417;-1946103.937;2839068.257;Fixed;Propuesto
7;VICTOR RAUL HINOJOSA;3;CL03_PP_038;TASAHUAYO;-16.43971669;-71.52458892;-1946014.013;2839119.05;Fixed;Establecido
7;VICTOR RAUL HINOJOSA;3;CL03_PP_039;LOSA DEPORTIVA BARTOLOME HERRERA;-16.43984295;-71.52592617;-1946011.952;2838965.805;Fixed;Propuesto
7;VICTOR RAUL HINOJOSA;3;CL03_PP_040;URB. BARTOLOME HERRERA;-16.43947272;-71.52630944;-1945963.623;2838927.203;Fixed;Establecido
7;VICTOR RAUL HINOJOSA;3;CL03_PP_041;PARQUE BARTOLOME HERRERA;-16.43884786;-71.52716279;-1945879.446;2838838.645;Fixed;Propuesto
7;VICTOR RAUL HINOJOSA;3;CL03_PP_042;PISCINA MUNICIPAL;-16.43807256;-71.52443333;-1945822.85;2839158.207;Fixed;Establecido
7;VICTOR RAUL HINOJOSA;3;CL03_PP_043;PARQUE DOLORES;-16.4383839;-71.52186455;-1945891.87;2839445.337;Fixed;Propuesto
7;VICTOR RAUL HINOJOSA;3;CL03_PP_044;CANCHA CANIGOL;-16.43830855;-71.51957373;-1945911.961;2839706.021;Fixed;Propuesto
7;VICTOR RAUL HINOJOSA;3;CL03_PP_045;URB. LOS HUERTOS;-16.43726394;-71.51962276;-1945788.633;2839714.139;Fixed;Establecido
7;VICTOR RAUL HINOJOSA;3;CL03_PP_046;PARQUE LA FLORIDA;-16.43563333;-71.51696918;-1945630.612;2840036.316;Fixed;Establecido
7;VICTOR RAUL HINOJOSA;3;CL03_PP_047;PARQUE MI PERU;-16.43356685;-71.5149934;-1945412.823;2840287.365;Fixed;Establecido
7;VICTOR RAUL HINOJOSA;3;CL03_PP_048;URB ALAS DEL SUR;-16.43318971;-71.51193454;-1945407.17;2840639.095;Fixed;Establecido
7;VICTOR RAUL HINOJOSA;3;CL03_PP_049;ESTADIO JLBYR;-16.43297176;-71.51081372;-1945395.731;2840769.021;Fixed;Propuesto
7;VICTOR RAUL HINOJOSA;3;CL03_PP_050;RECEPCIONES ROCOTO AREQUIPEĂ‘O (AV. SALAVERRY);-16.4323952;-71.51363416;-1945292.36;2840456.804;Fixed;Propuesto
7;VICTOR RAUL HINOJOSA;3;CL03_PP_051;AV. ALBORADA;-16.43124824;-71.51355795;-1945158.586;2840480.46;Fixed;Establecido
7;VICTOR RAUL HINOJOSA;3;CL03_PP_052;PARQUE URB. SANTA URSULA;-16.43070191;-71.51540885;-1945071.024;2840277.767;Fixed;Propuesto
7;VICTOR RAUL HINOJOSA;3;CL03_PP_053;PARQUE ALAMEDA DEL SOL;-16.43124835;-71.51667953;-1945119.163;2840126.554;Fixed;Propuesto
7;VICTOR RAUL HINOJOSA;3;CL03_PP_054;PARQUE LA ALBORADA;-16.43250751;-71.51556076;-1945281.212;2840236.91;Fixed;Establecido
7;VICTOR RAUL HINOJOSA;3;CL03_PP_055;IEP LOS HERALDOS DE JESUS;-16.43339856;-71.51653185;-1945373.616;2840115.151;Fixed;Propuesto
7;VICTOR RAUL HINOJOSA;3;CL03_PP_056;RESIDENCIAL VILLA JABIRU;-16.4324614;-71.51779914;-1945247.519;2839983.744;Fixed;Propuesto
7;VICTOR RAUL HINOJOSA;3;CL03_PP_057;PARQUE JLBYR;-16.43368604;-71.51765682;-1945393.176;2839983.849;Fixed;Propuesto
7;VICTOR RAUL HINOJOSA;3;CL03_PP_058;PARQUE MI PERU;-16.43414525;-71.5186391;-1945434.71;2839866.478;Fixed;Propuesto
7;VICTOR RAUL HINOJOSA;3;CL03_PP_059;URB. MONTE RICO;-16.4324836;-71.52021073;-1945219.665;2839710.052;Fixed;Establecido
7;VICTOR RAUL HINOJOSA;3;CL03_PP_060;PARQUE SOLAR EL BOSQUE;-16.43390201;-71.52036398;-1945384.348;2839674.114;Fixed;Propuesto
7;VICTOR RAUL HINOJOSA;3;CL03_PP_061;URB. SOLAR DEL BOSQUE;-16.43468153;-71.52133125;-1945463.7;2839554.255;Mobile;Establecido
7;VICTOR RAUL HINOJOSA;3;CL03_PP_062;URB SANTA LUISA;-16.43562126;-71.52035375;-1945586.435;2839652.772;Fixed;Establecido
7;VICTOR RAUL HINOJOSA;3;CL03_PP_063;URB LOS CRYSTALES;-16.4357287;-71.52124224;-1945587.832;2839550.641;Fixed;Establecido
7;VICTOR RAUL HINOJOSA;3;CL03_PP_064;CASA DEL ADULTO MAYOR;-16.43615893;-71.52183159;-1945630.927;2839478.197;Fixed;Establecido
7;VICTOR RAUL HINOJOSA;3;CL03_PP_065;MALECON DOLORES;-16.43671188;-71.52161633;-1945698.599;2839495.362;Fixed;Propuesto
7;VICTOR RAUL HINOJOSA;3;CL03_PP_066;JUAN PABLO IV;-16.43561012;-71.52271306;-1945555.326;2839385.452;Fixed;Establecido
7;VICTOR RAUL HINOJOSA;3;CL03_PP_067;JUAN PABLO III;-16.43606277;-71.5233598;-1945600.328;2839306.209;Fixed;Establecido
7;VICTOR RAUL HINOJOSA;3;CL03_PP_068;JUAN PABLO II;-16.43654113;-71.52426747;-1945645.055;2839197.052;Fixed;Establecido
7;VICTOR RAUL HINOJOSA;3;CL03_PP_069;JAUN PABLO I;-16.43617762;-71.52506492;-1945592.283;2839111.407;Fixed;Establecido
7;VICTOR RAUL HINOJOSA;3;CL03_PP_070;PARQUE VILLA DEL MAR;-16.43621337;-71.52627892;-1945581.152;2838973.317;Fixed;Propuesto
7;VICTOR RAUL HINOJOSA;3;CL03_PP_071;PARQUE RODANTES DEL SUR;-16.43727946;-71.52638599;-1945705.026;2838947.228;Fixed;Establecido
7;VICTOR RAUL HINOJOSA;3;CL03_PP_072;PARQUE LOS OLIVOS;-16.43619874;-71.52744961;-1945564.649;2838840.796;Fixed;Establecido
7;VICTOR RAUL HINOJOSA;3;CL03_PP_073;IGLESIA DE CRISTO;-16.43728252;-71.52752735;-1945690.973;2838817.802;Fixed;Propuesto
7;VICTOR RAUL HINOJOSA;3;CL03_PP_074;PARQUE APLAO;-16.43669675;-71.52907734;-1945602.594;2838649.759;Fixed;Propuesto
7;VICTOR RAUL HINOJOSA;3;CL03_PP_075;PARQUE JOSE SANTOS CHOCANO;-16.43485927;-71.53002475;-1945374.798;2838566.398;Fixed;Propuesto
7;VICTOR RAUL HINOJOSA;3;CL03_PP_076;LOSA DEPORTIVA 13 DE ENERO;-16.43419162;-71.52804269;-1945321.397;2838799.823;Fixed;Propuesto
7;VICTOR RAUL HINOJOSA;3;CL03_PP_077;PARQUE SENHOR DE LOS MILAGROS;-16.43458272;-71.52656074;-1945386.05;2838962.705;Fixed;Propuesto
7;VICTOR RAUL HINOJOSA;3;CL03_PP_078;PARQUE PIZARRO;-16.43534652;-71.52624881;-1945479.707;2838988.072;Fixed;Propuesto
7;VICTOR RAUL HINOJOSA;3;CL03_PP_079;PARQUE SANTISIMA CRUZ URRACA;-16.43502619;-71.525338;-1945453.582;2839095.518;Fixed;Propuesto
7;VICTOR RAUL HINOJOSA;3;CL03_PP_080;PARQUE JORGE BASADRE;-16.43347842;-71.52627743;-1945259.911;2839009.27;Fixed;Propuesto
7;VICTOR RAUL HINOJOSA;3;CL03_PP_081;PARQUE JUAN PABLO;-16.43370123;-71.52509246;-1945301.046;2839140.69;Fixed;Propuesto
7;VICTOR RAUL HINOJOSA;3;CL03_PP_082;PARQUE FRANCISCO DE ZELA;-16.43391769;-71.52338706;-1945348.008;2839331.191;Fixed;Propuesto
7;VICTOR RAUL HINOJOSA;3;CL03_PP_083;ALAMEDA PASEO DE LOSHEROES;-16.43350268;-71.52265912;-1945308.452;2839419.146;Fixed;Propuesto
7;VICTOR RAUL HINOJOSA;3;CL03_PP_084;IGLESIA DE LOS SANTOS DE LOS ULTIMOS DIAS;-16.43257285;-71.52249431;-1945201.309;2839449.998;Fixed;Propuesto
7;VICTOR RAUL HINOJOSA;3;CL03_PP_085;PARQUE SANTA CLARA;-16.4314664;-71.52168566;-1945081.549;2839556.152;Fixed;Establecido
7;VICTOR RAUL HINOJOSA;3;CL03_PP_086;PARQUE LOS CRISTALES;-16.43182579;-71.52042696;-1945139.662;2839694.146;Fixed;Propuesto
7;VICTOR RAUL HINOJOSA;3;CL03_PP_087;COLEGIO SANTA URSULA;-16.43061931;-71.51973815;-1945006.637;2839788.026;Fixed;Propuesto
7;VICTOR RAUL HINOJOSA;3;CL03_PP_088;CENTRO DE CHARLA AREQUIPA;-16.43011331;-71.51918071;-1944954.238;2839857.845;Fixed;Propuesto
7;VICTOR RAUL HINOJOSA;3;CL03_PP_089;PARQUE LA ENCALADA;-16.42968164;-71.51631064;-1944939.779;2840188.882;Fixed;Establecido
7;VICTOR RAUL HINOJOSA;3;CL03_PP_090;IEP MADRE SANTA BEATRIZ;-16.42928539;-71.5170996;-1944883.265;2840104.62;Fixed;Propuesto
7;VICTOR RAUL HINOJOSA;3;CL03_PP_091;PARQUE LAS VINHAS;-16.42862288;-71.51666942;-1944810.873;2840162.062;Fixed;Propuesto
7;VICTOR RAUL HINOJOSA;3;CL03_PP_092;PARQUE DIVINO NINHO JESUS;-16.42758542;-71.51509063;-1944708.941;2840354.635;Fixed;Propuesto
7;VICTOR RAUL HINOJOSA;3;CL03_PP_093;PARQUE CASA BLANCA;-16.42704005;-71.51610377;-1944632.078;2840246.906;Fixed;Establecido
7;VICTOR RAUL HINOJOSA;3;CL03_PP_094;PARQUE LOS CCORITOS;-16.42746939;-71.51736259;-1944666.616;2840098.569;Fixed;Propuesto
7;VICTOR RAUL HINOJOSA;3;CL03_PP_095;ESTACION DE BOMBEROS 78;-16.42802091;-71.51868685;-1944714.679;2839941.214;Fixed;Propuesto
7;VICTOR RAUL HINOJOSA;3;CL03_PP_096;PARQUE MEXICO;-16.42890402;-71.52017977;-1944799.566;2839760.404;Mobile;Establecido
7;VICTOR RAUL HINOJOSA;3;CL03_PP_097;CANCHA SINTETICA BARRA BRAVA;-16.42911061;-71.52255732;-1944793.811;2839488.155;Fixed;Propuesto
7;VICTOR RAUL HINOJOSA;3;CL03_PP_098;LA CRUZ;-16.42994165;-71.5247934;-1944863.199;2839223.78;Fixed;Propuesto
7;VICTOR RAUL HINOJOSA;3;CL03_PP_099;ALTO DE LA LUNA II;-16.43038973;-71.52421971;-1944923.076;2839282.957;Fixed;Propuesto
7;VICTOR RAUL HINOJOSA;3;CL03_PP_100;PARQUE DEL PASTO ALTO DE LA LUNA;-16.43135769;-71.5240491;-1945038.934;2839289.635;Fixed;Propuesto
7;VICTOR RAUL HINOJOSA;3;CL03_PP_101;PARQUE CORPUS CRISTI;-16.43242728;-71.52500042;-1945152.562;2839167.792;Fixed;Establecido
7;VICTOR RAUL HINOJOSA;3;CL03_PP_102;PARQUE ALTO DE LA LUNA;-16.43065056;-71.52561096;-1944936.15;2839121.821;Fixed;Establecido
7;VICTOR RAUL HINOJOSA;3;CL03_PP_103;PARQUE SAMUEL MORSE;-16.43088642;-71.52727924;-1944942.794;2838929.609;Fixed;Propuesto
7;VICTOR RAUL HINOJOSA;3;CL03_PP_104;IE JORGE BASADRE GROHMANN;-16.43303987;-71.52671096;-1945202.923;2838965.862;Fixed;Propuesto
7;VICTOR RAUL HINOJOSA;3;CL03_PP_105;PALACIO DEL DEPORTE;-16.4330748;-71.52810236;-1945189.458;2838807.669;Fixed;Propuesto
7;VICTOR RAUL HINOJOSA;3;CL03_PP_106;PARQUE PLAZA CIUDAD SATELITE;-16.43098982;-71.52949535;-1944926.964;2838677.026;Fixed;Propuesto
7;VICTOR RAUL HINOJOSA;3;CL03_PP_107;PARQUE 13 DE ENERO;-16.43200465;-71.53079702;-1945029.739;2838516.192;Fixed;Propuesto
7;VICTOR RAUL HINOJOSA;3;CL03_PP_108;PUESTO DE SALUD 13 DE ENERO;-16.43283249;-71.5305779;-1945129.745;2838530.204;Fixed;Establecido
7;VICTOR RAUL HINOJOSA;3;CL03_PP_109;PARQUE MICKEY;-16.43465101;-71.53343034;-1945307.344;2838183.064;Fixed;Propuesto
7;VICTOR RAUL HINOJOSA;3;CL03_PP_110;LOSA DEPORTIVA LAS CASUARINAS;-16.43354901;-71.53331214;-1945179.396;2838210.876;Fixed;Propuesto
7;VICTOR RAUL HINOJOSA;3;CL03_PP_111;PARROQUIA SAN JOSE OBRERO;-16.43128063;-71.53288349;-1944918.36;2838289.133;Fixed;Propuesto
7;VICTOR RAUL HINOJOSA;3;CL03_PP_112;IGLESIA CRISTO ELIM;-16.43379503;-71.54028294;-1945120.327;2837417.464;Fixed;Propuesto
7;VICTOR RAUL HINOJOSA;3;CL03_PP_113;LAVADERO DE AUTOS NINHO GABRIEL;-16.43136364;-71.54177972;-1944815.865;2837279.577;Fixed;Propuesto
7;VICTOR RAUL HINOJOSA;3;CL03_PP_114;NINHO MANUELITO;-16.43063084;-71.54002087;-1944751.981;2837488.534;Fixed;Establecido
7;VICTOR RAUL HINOJOSA;3;CL03_PP_115;CANCHA AVELINO;-16.42951304;-71.53817923;-1944643.92;2837711.912;Fixed;Propuesto
7;VICTOR RAUL HINOJOSA;3;CL03_PP_116;LOSA DEPORTIVA LAS 3 CANCHITAS;-16.42847159;-71.53940974;-1944506.072;2837586.033;Fixed;Propuesto
7;VICTOR RAUL HINOJOSA;3;CL03_PP_117;COLEGIO MATHER MARIA;-16.429498;-71.54185572;-1944595.777;2837295.345;Fixed;Propuesto
7;VICTOR RAUL HINOJOSA;3;CL03_PP_118;LOSA DEPORTIVA CERRO JULI;-16.43027287;-71.54457142;-1944652.539;2836977.377;Fixed;Propuesto
7;VICTOR RAUL HINOJOSA;3;CL03_PP_119;PARQUE SAN BACILIO;-16.42920114;-71.54336565;-1944541.867;2837128.063;Fixed;Establecido
7;VICTOR RAUL HINOJOSA;3;CL03_PP_120;PARQUE RECREATIVO DE VILLA HERMOSA;-16.42804164;-71.54245201;-1944417.2;2837246.783;Fixed;Propuesto
7;VICTOR RAUL HINOJOSA;3;CL03_PP_121;LOSA DEPORTIVA;-16.42887286;-71.54579367;-1944472.691;2836857.121;Fixed;Propuesto
7;VICTOR RAUL HINOJOSA;3;CL03_PP_122;PARQUE URB. VILLA HERMOSA;-16.42773806;-71.54570746;-1944340.492;2836881.719;Fixed;Establecido
7;VICTOR RAUL HINOJOSA;3;CL03_PP_123;GERENCIA REGIONAL DE AGRICULTURA;-16.42721021;-71.54404243;-1944299.49;2837077.359;Fixed;Propuesto
7;VICTOR RAUL HINOJOSA;3;CL03_PP_124;COLEGIO TALENTUS SCHOOL;-16.42628054;-71.54456148;-1944183.751;2837030.666;Fixed;Propuesto
7;VICTOR RAUL HINOJOSA;3;CL03_PP_125;IGLESIA CERRO JULI;-16.42503455;-71.54350426;-1944050.734;2837166.79;Fixed;Propuesto
7;VICTOR RAUL HINOJOSA;3;CL03_PP_126;P.S. CERRO JULY;-16.42582774;-71.54232922;-1944158.715;2837289.63;Fixed;Establecido
7;VICTOR RAUL HINOJOSA;3;CL03_PP_127;COLEGIO MANUEL SCORZA;-16.42531272;-71.54132924;-1944110.833;2837409.717;Fixed;Propuesto
7;VICTOR RAUL HINOJOSA;3;CL03_PP_128;BYPASS DEL AVELINO;-16.4247026;-71.5375897;-1944086.331;2837841.613;Fixed;Establecido
7;VICTOR RAUL HINOJOSA;3;CL03_PP_129;IGLESIA DE JESUCRISTO;-16.42662256;-71.53572773;-1944335.335;2838027.6;Fixed;Propuesto
7;VICTOR RAUL HINOJOSA;3;CL03_PP_130;LOSA DEPORTIVA PUERTA VERDE;-16.4264516;-71.53481401;-1944326.781;2838133.418;Fixed;Propuesto
7;VICTOR RAUL HINOJOSA;3;CL03_PP_131;PARQUE PUERTA VERDE;-16.42692163;-71.5341167;-1944390.788;2838206.324;Fixed;Establecido
7;VICTOR RAUL HINOJOSA;3;CL03_PP_132;PARQUE VILLA ELECTRICA;-16.42853922;-71.53507036;-1944568.759;2838077.067;Mobile;Establecido
7;VICTOR RAUL HINOJOSA;3;CL03_PP_133;PARQUE COLOMBIA;-16.42794393;-71.53390702;-1944513.514;2838216.729;Fixed;Propuesto
7;VICTOR RAUL HINOJOSA;3;CL03_PP_134;PASEO HEROES NAVALES;-16.42903577;-71.5329777;-1944653.488;2838307.806;Fixed;Propuesto
7;VICTOR RAUL HINOJOSA;3;CL03_PP_135;PARQUE LANIFICIO;-16.42617942;-71.53195987;-1944330.821;2838460.537;Fixed;Establecido
7;VICTOR RAUL HINOJOSA;3;CL03_PP_136;PARQUE FECIA;-16.42869023;-71.53209733;-1944624.01;2838412.126;Fixed;Establecido
7;VICTOR RAUL HINOJOSA;3;CL03_PP_137;PARQUE ARGENTINA;-16.42967738;-71.53065723;-1944758.137;2838562.475;Fixed;Propuesto
7;VICTOR RAUL HINOJOSA;3;CL03_PP_138;VINATEA REYNOSO - COOP 2 DE MAYO;-16.42965254;-71.5298484;-1944765.428;2838654.492;Fixed;Establecido
7;VICTOR RAUL HINOJOSA;3;CL03_PP_139;LOSA DEPORTIVA 2 DE MAYO;-16.42877846;-71.52826307;-1944682.765;2838845.646;Fixed;Propuesto
7;VICTOR RAUL HINOJOSA;3;CL03_PP_140;PARQUE GUATEMALA;-16.42705139;-71.52864886;-1944475.027;2838824.496;Fixed;Propuesto
7;VICTOR RAUL HINOJOSA;3;CL03_PP_141;PARQUE DIAZ CANSECO II;-16.42736726;-71.52790909;-1944521.467;2838904.232;Fixed;Propuesto
7;VICTOR RAUL HINOJOSA;3;CL03_PP_142;COLEGIO IMMACULADA CONCEPCION;-16.42712564;-71.52721547;-1944501.839;2838986.027;Fixed;Propuesto
7;VICTOR RAUL HINOJOSA;3;CL03_PP_143;PARQUE LAS BEGONIAS;-16.42635141;-71.52614057;-1944424.461;2839118.012;Fixed;Establecido
7;VICTOR RAUL HINOJOSA;3;CL03_PP_144;PARQUE PEDRO DIEZ CANSECO;-16.4283731;-71.5262769;-1944660.22;2839076.116;Fixed;Establecido
7;VICTOR RAUL HINOJOSA;3;CL03_PP_145;PARQUE DIAZ CANSECO;-16.42867986;-71.52523001;-1944709.469;2839190.788;Fixed;Propuesto
7;VICTOR RAUL HINOJOSA;3;CL03_PP_146;PARQUE DIVINO NINHO;-16.42713593;-71.52450265;-1944537.291;2839293.443;Fixed;Propuesto
7;VICTOR RAUL HINOJOSA;3;CL03_PP_147;MUNICIPAPLIDAD JLBYR;-16.42649323;-71.52394663;-1944468.814;2839364.886;Fixed;Propuesto
7;VICTOR RAUL HINOJOSA;3;CL03_PP_148;IEP CHILDRENS PARADISE;-16.42798934;-71.5223379;-1944664.868;2839527.699;Fixed;Propuesto
7;VICTOR RAUL HINOJOSA;3;CL03_PP_149;PARQUE LA MELGARIANA;-16.427296;-71.52114896;-1944598.434;2839671.562;Fixed;Establecido
7;VICTOR RAUL HINOJOSA;3;CL03_PP_150;PARQUE 7 DE AGOSTO;-16.42588175;-71.51610197;-1944496.032;2840262.268;Fixed;Propuesto
7;VICTOR RAUL HINOJOSA;3;CL03_PP_151;RESIDENCIAL SANTA CATALINA;-16.42445187;-71.51680508;-1944319.182;2840201.259;Fixed;Propuesto
7;VICTOR RAUL HINOJOSA;3;CL03_PP_152;PARQUE SANTA CATALINA;-16.42610025;-71.5179404;-1944498.483;2840050.975;Fixed;Establecido
7;VICTOR RAUL HINOJOSA;3;CL03_PP_153;PARQUE EL AVION;-16.42479725;-71.51877195;-1944334.918;2839973.744;Fixed;Establecido
7;VICTOR RAUL HINOJOSA;3;CL03_PP_154;PARQUE VILLA MEDICA;-16.42290813;-71.51932404;-1944106.032;2839935.862;Fixed;Establecido
7;VICTOR RAUL HINOJOSA;3;CL03_PP_155;PARQUE COOP DANIEL ALCIDES CARRION;-16.42448971;-71.52023942;-1944280.264;2839811.392;Fixed;Propuesto
7;VICTOR RAUL HINOJOSA;3;CL03_PP_156;LOSA DEPORTIVA VILLA MEDICA;-16.42383476;-71.52077424;-1944196.575;2839759.323;Fixed;Propuesto
7;VICTOR RAUL HINOJOSA;3;CL03_PP_157;PARQUE UNIVERCIDAD ALAS PERUANA;-16.4249482;-71.52187748;-1944313.443;2839619.68;Fixed;Establecido
7;VICTOR RAUL HINOJOSA;3;CL03_PP_158;PARQUE QUINTA TRISTAN;-16.42286153;-71.52653365;-1944009.558;2839119.083;Fixed;Propuesto
7;VICTOR RAUL HINOJOSA;3;CL03_PP_159;PARQUE SANTA LUCIA;-16.4245282;-71.52670461;-1944203.177;2839077.909;Fixed;Establecido
7;VICTOR RAUL HINOJOSA;3;CL03_PP_160;PARQUE COOP LAMBRAMANI;-16.42437138;-71.52849867;-1944162.116;2838876.565;Fixed;Establecido
7;VICTOR RAUL HINOJOSA;3;CL03_PP_161;PARQUE URB. LOS LAURELES;-16.42320422;-71.52871562;-1944022.278;2838867.23;Fixed;Propuesto
7;VICTOR RAUL HINOJOSA;3;CL03_PP_162;COMISARIA JLBYR;-16.42427297;-71.5294599;-1944138.427;2838768.878;Fixed;Propuesto
7;VICTOR RAUL HINOJOSA;3;CL03_PP_163;PARQUE QUINTA TRISTAN;-16.42401024;-71.53110338;-1944086.829;2838585.993;Fixed;Establecido
7;VICTOR RAUL HINOJOSA;3;CL03_PP_164;MERCADO NUEVO AMANECER;-16.4242674;-71.53440048;-1944075.44;2838208.848;Fixed;Establecido
7;VICTOR RAUL HINOJOSA;3;CL03_PP_165;CAMPO DEPORTIVO HURACAN;-16.42370668;-71.53340364;-1944022.153;2838329.185;Fixed;Propuesto
7;VICTOR RAUL HINOJOSA;3;CL03_PP_166;COLEGIO ALFRED WERNER;-16.42331613;-71.53233374;-1943989.775;2838455.582;Fixed;Propuesto
7;VICTOR RAUL HINOJOSA;3;CL03_PP_167;PARROQUIA SANTO TORIBIO DE MOGROVEJO;-16.42146894;-71.53145305;-1943783.908;2838579.57;Fixed;Propuesto
7;VICTOR RAUL HINOJOSA;3;CL03_PP_168;PARQUE BANCARIOS;-16.42194306;-71.52917386;-1943868.354;2838831.765;Fixed;Establecido
7;VICTOR RAUL HINOJOSA;3;CL03_PP_169;IGLESIA SANTO TORIBIO DE MOGROVEJO;-16.41969706;-71.52860865;-1943611.658;2838925.204;Fixed;Propuesto
7;VICTOR RAUL HINOJOSA;3;CL03_PP_170;PARQUE LOS NARANJOS;-16.42074715;-71.52728615;-1943751.694;2839061.414;Fixed;Establecido
7;VICTOR RAUL HINOJOSA;3;CL03_PP_171;PARQUE LA ESPERANZA;-16.41847393;-71.5289162;-1943464.104;2838906.324;Fixed;Establecido
7;VICTOR RAUL HINOJOSA;3;CL03_PP_172;PARQUE JOHN F. KENNEDY;-16.41914862;-71.52658837;-1943572.724;2839161.421;Fixed;Propuesto
7;VICTOR RAUL HINOJOSA;3;CL03_PP_173;CANCHA LA BOMBONERA;-16.42009984;-71.5249963;-1943704.55;2839329.487;Fixed;Propuesto
7;VICTOR RAUL HINOJOSA;3;CL03_PP_174;PARQUE JUAN MANUEL POLAR;-16.41940656;-71.518818;-1943701.085;2840039.034;Fixed;Establecido
7;VICTOR RAUL HINOJOSA;3;CL03_PP_175;PARQUE KILLARY I;-16.41722295;-71.52007397;-1943428.72;2839925.187;Fixed;Establecido
7;VICTOR RAUL HINOJOSA;3;CL03_PP_176;PARQUE KILLARI 2;-16.41614038;-71.52037406;-1943297.761;2839905.317;Mobile;Propuesto
7;VICTOR RAUL HINOJOSA;3;CL03_PP_177;COMPLEJO HABITACIONAL DUNKER;-16.41790437;-71.51754801;-1943540.649;2840202.673;Fixed;Propuesto
7;VICTOR RAUL HINOJOSA;3;CL03_PP_178;PARQUE PLUMA BOLIVARIANA;-16.41765596;-71.51664445;-1943522.873;2840308.369;Fixed;Propuesto
7;VICTOR RAUL HINOJOSA;3;CL03_PP_179;PARQUE DE LA URB CORAZON DE MARIA;-16.41633133;-71.51685209;-1943364.642;2840302.15;Fixed;Propuesto
7;VICTOR RAUL HINOJOSA;3;CL03_PP_180;PARQUE DE LA FAP;-16.4161694;-71.51780852;-1943333.549;2840195.824;Fixed;Propuesto
7;VICTOR RAUL HINOJOSA;3;CL03_PP_181;PARQUE COOP 58;-16.41480248;-71.51678486;-1943185.891;2840329.765;Fixed;Establecido
7;VICTOR RAUL HINOJOSA;3;CL03_PP_182;LOSA DEPORTIVA COOP 58;-16.41476898;-71.51545405;-1943198.752;2840481.097;Fixed;Propuesto
7;VICTOR RAUL HINOJOSA;3;CL03_PP_183;PARQUE MALECON MISSOURI;-16.41106844;-71.51616859;-1942755.013;2840448.465;Fixed;Propuesto
7;VICTOR RAUL HINOJOSA;3;CL03_PP_184;PARQUE LA CANTUTA II ETAPA;-16.41162339;-71.51785001;-1942798.99;2840250.558;Fixed;Establecido
7;VICTOR RAUL HINOJOSA;3;CL03_PP_185;PARQUE LA CANTUTA I ETAPA;-16.41235101;-71.51883204;-1942872.074;2840129.697;Fixed;Establecido
7;VICTOR RAUL HINOJOSA;3;CL03_PP_186;PARQUE SANTO DOMINGO;-16.41351857;-71.51785521;-1943021.558;2840225.191;Fixed;Propuesto
7;VICTOR RAUL HINOJOSA;3;CL03_PP_187;LOSA DEPORTIVA;-16.41440883;-71.51822669;-1943121.452;2840171.431;Fixed;Propuesto
7;VICTOR RAUL HINOJOSA;3;CL03_PP_188;LOSA DEPORTIVA LA CANTUTA;-16.41285935;-71.51969548;-1942920.895;2840025.151;Fixed;Propuesto
7;VICTOR RAUL HINOJOSA;3;CL03_PP_189;PARQUE CAMINO REAL;-16.41512326;-71.52005165;-1943182.348;2839955.171;Fixed;Establecido
7;VICTOR RAUL HINOJOSA;3;CL03_PP_190;PARQUE URB SANMTA MARIA DE LAMBRAMANI;-16.41437698;-71.52125682;-1943079.473;2839828.283;Fixed;Establecido
7;VICTOR RAUL HINOJOSA;3;CL03_PP_191;PARQUE ASVIPOL;-16.41592081;-71.52229408;-1943247.74;2839690.494;Fixed;Propuesto
7;VICTOR RAUL HINOJOSA;3;CL03_PP_192;CANCHA SINTETICA BARRUNTO;-16.41587129;-71.5259788;-1943195.436;2839273.371;Fixed;Propuesto
7;VICTOR RAUL HINOJOSA;3;CL03_PP_193;PARQUE AGRICULTURA;-16.41549186;-71.52840806;-1943120.222;2839002.907;Fixed;Propuesto
7;VICTOR RAUL HINOJOSA;3;CL03_PP_194;PARQUE LA MELGAR;-16.4161081;-71.52938643;-1943180.269;2838883.93;Mobile;Establecido
7;VICTOR RAUL HINOJOSA;3;CL03_PP_195;PARQUE URB AGRUCULTURA;-16.41733239;-71.52916934;-1943326.819;2838892.543;Fixed;Establecido
7;VICTOR RAUL HINOJOSA;3;CL03_PP_196;PARQUE URB CONQUISTADORES;-16.41699559;-71.53082107;-1943266.423;2838709.68;Fixed;Establecido
7;VICTOR RAUL HINOJOSA;3;CL03_PP_197;PARQUE LOS CONQUISTADORES;-16.41769812;-71.53045648;-1943353.544;2838741.835;Fixed;Propuesto
7;VICTOR RAUL HINOJOSA;3;CL03_PP_198;PARQUE EL PERIODISTA;-16.41850335;-71.53117052;-1943439.124;2838650.359;Fixed;Establecido
7;VICTOR RAUL HINOJOSA;3;CL03_PP_199;PARQUE LOS ROSALES;-16.41383745;-71.52891206;-1942919.528;2838967.383;Fixed;Establecido
7;VICTOR RAUL HINOJOSA;3;CL03_PP_200;PARQUE CABANHA MARIA;-16.41217443;-71.52995412;-1942711.038;2838870.965;Fixed;Establecido
7;VICTOR RAUL HINOJOSA;3;CL03_PP_201;PARQUE CABANHA AREQUIPA;-16.41052651;-71.53071603;-1942507.858;2838806.108;Fixed;Propuesto
7;VICTOR RAUL HINOJOSA;3;CL03_PP_202;PARQUE VILLA GLORIA;-16.41084488;-71.53164823;-1942533.502;2838696.258;Mobile;Establecido
7;VICTOR RAUL HINOJOSA;3;CL03_PP_203;PARQUE FRANCISCO MOSTAJO;-16.41263964;-71.53210195;-1942738.602;2838621.373;Fixed;Establecido
7;VICTOR RAUL HINOJOSA;3;CL03_PP_204;COLEGIO NUESTRA SENHORA DEL PILAR;-16.41139917;-71.53378387;-1942571.687;2838446.886;Fixed;Propuesto
7;VICTOR RAUL HINOJOSA;3;CL03_PP_205;HOSPITAL GENERAL HONORIO DELGADO;-16.41575967;-71.53345401;-1943088.044;2838427.322;Fixed;Propuesto
7;VICTOR RAUL HINOJOSA;3;CL03_PP_206;PARQUE SAN FELIPE;-16.41571936;-71.53476072;-1943066.832;2838279.704;Fixed;Propuesto
7;VICTOR RAUL HINOJOSA;3;CL03_PP_207;PARQUE PABLO VI;-16.41735167;-71.53454819;-1943261.246;2838282.474;Fixed;Establecido
7;VICTOR RAUL HINOJOSA;3;CL03_PP_208;PARQUE JUAN MANUEL GUILLEN;-16.41788207;-71.53541371;-1943312.634;2838177.42;Fixed;Propuesto
7;VICTOR RAUL HINOJOSA;3;CL03_PP_209;PARQUE SAN VICENTE;-16.41795148;-71.53661727;-1943305.611;2838040.065;Fixed;Propuesto
7;VICTOR RAUL HINOJOSA;3;CL03_PP_210;PARQUE DE LECTURA;-16.41808779;-71.53713109;-1943315.143;2837980.033;Fixed;Propuesto
7;VICTOR RAUL HINOJOSA;3;CL03_PP_211;PARQUE LOS ANGELES;-16.41638361;-71.53684631;-1943118.56;2838034.58;Fixed;Establecido
7;VICTOR RAUL HINOJOSA;3;CL03_PP_212;PARQUE SAN FERNANDO;-16.41756096;-71.53861068;-1943234.608;2837819.176;Fixed;Propuesto
7;VICTOR RAUL HINOJOSA;3;CL03_PP_213;PARQUE SANTA DOROTEA;-16.41761223;-71.53975832;-1943226.162;2837688.4;Fixed;Propuesto
7;VICTOR RAUL HINOJOSA;3;CL03_PP_214;PARQUE CAMPINHA DORADA;-16.41944798;-71.53972861;-1943442.16;2837667.79;Fixed;Establecido
7;VICTOR RAUL HINOJOSA;3;CL03_PP_215;PARQUE MANZANITOS;-16.41855053;-71.54135679;-1943316.222;2837494.931;Fixed;Establecido
7;VICTOR RAUL HINOJOSA;3;CL03_PP_216;TERMINAL FLORES;-16.42159223;-71.54425018;-1943637.013;2837127.197;Fixed;Propuesto
7;VICTOR RAUL HINOJOSA;3;CL03_PP_217;SOCIEDAD ELECTRICA AREQUIPA;-16.41858904;-71.54766772;-1943241.204;2836778.994;Mobile;Propuesto
7;VICTOR RAUL HINOJOSA;3;CL03_PP_218;CANCHA SINTETICA CHAMPIONS LEAGUE;-16.41469491;-71.54643102;-1942799.408;2836970.03;Fixed;Propuesto
7;VICTOR RAUL HINOJOSA;3;CL03_PP_219;COMPANIA DE BOMBEROS LUIS KAEMENA;-16.41698813;-71.54129894;-1943133.436;2837521.894;Fixed;Propuesto
7;VICTOR RAUL HINOJOSA;3;CL03_PP_220;PARQUE JUVENTUDFERROVIARIA;-16.41594443;-71.54092964;-1943015.5;2837577.391;Fixed;Establecido
7;VICTOR RAUL HINOJOSA;3;CL03_PP_221;PARQUE SIDSUR;-16.41544094;-71.53974099;-1942971.343;2837718.722;Fixed;Propuesto
7;VICTOR RAUL HINOJOSA;3;CL03_PP_222;PARQUE SAN GERONIMO;-16.41490679;-71.53752088;-1942936.588;2837977.393;Fixed;Establecido
7;VICTOR RAUL HINOJOSA;3;CL03_PP_223;PARQUE ULRICH NEISSER;-16.41388482;-71.53584816;-1942837.634;2838180.382;Fixed;Propuesto
7;VICTOR RAUL HINOJOSA;3;CL03_PP_224;PARQUE FERROVIARIOS;-16.41224994;-71.5359322;-1942644.539;2838192.206;Fixed;Establecido
7;VICTOR RAUL HINOJOSA;3;CL03_PP_225;PARQUE DE LA MADRE;-16.4139327;-71.54214624;-1942763.874;2837465.736;Fixed;Establecido
7;VICTOR RAUL HINOJOSA;3;CL03_PP_226;PARQUE NESTOR CACERES;-16.41203258;-71.54063986;-1942559.674;2837661.324;Fixed;Propuesto
7;VICTOR RAUL HINOJOSA;3;CL03_PP_227;PARQUE EL TREN;-16.41197014;-71.53937136;-1942568.325;2837805.951;Fixed;Establecido
7;VICTOR RAUL HINOJOSA;3;CL03_PP_228;PARQUE SIMON BOLIVAR;-16.41233184;-71.53811406;-1942626.657;2837943.771;Fixed;Propuesto
7;VICTOR RAUL HINOJOSA;3;CL03_PP_229;PARQUE CHIGUATA;-16.40938931;-71.53740648;-1942289.943;2838062.415;Fixed;Propuesto
7;VICTOR RAUL HINOJOSA;3;CL03_PP_230;PERURAIL;-16.40946996;-71.54132162;-1942250.08;2837617.487;Fixed;Propuesto
7;VICTOR RAUL HINOJOSA;3;CL03_PP_231;PARQUE MARIANO MELGAR;-16.40854794;-71.54168937;-1942137.148;2837587.829;Fixed;Propuesto
7;VICTOR RAUL HINOJOSA;3;CL03_PP_232;COLEGIO LAMARCK;-16.40776805;-71.54005838;-1942066.092;2837782.922;Fixed;Propuesto
7;VICTOR RAUL HINOJOSA;3;CL03_PP_233;IGLESIA BAUTISTA VIDA NUEVA;-16.40702986;-71.53985446;-1941981.954;2837815.676;Fixed;Propuesto
7;VICTOR RAUL HINOJOSA;3;CL03_PP_234;residencial alas del sur;-16.43263621;-71.51287016;-1945330.326;2840540.266;Fixed;Propuesto
7;VICTOR RAUL HINOJOSA;3;CL03_PP_235;pasaje tasahuayo;-16.43851615;-71.50809088;-1946081.478;2841005.101;Fixed;Propuesto
7;VICTOR RAUL HINOJOSA;3;CL03_PP_236;sol de luna;-16.43958507;-71.51562028;-1946111.871;2840137.493;Fixed;Propuesto
7;VICTOR RAUL HINOJOSA;3;CL03_PP_237;cruce de sabandia;-16.44472648;-71.50493673;-1946850.935;2841281.31;Fixed;Propuesto
7;VICTOR RAUL HINOJOSA;3;CL03_PP_238;capilla una cuadra abajo del mercado;-16.44452276;-71.51110118;-1946749.04;2840585.128;Fixed;Propuesto
7;VICTOR RAUL HINOJOSA;3;CL03_PP_239;calle benigno ballon con seoane;-16.44318255;-71.51095387;-1946593.464;2840619.389;Fixed;Propuesto
7;VICTOR RAUL HINOJOSA;3;CL03_PP_240;pasaje san isidro;-16.41631238;-71.54989503;-1942945.742;2836556.222;Fixed;Propuesto
7;VICTOR RAUL HINOJOSA;3;CL03_PP_241;campo deportivo cub milan;-16.44253936;-71.51730364;-1946437.637;2839907.969;Fixed;Propuesto
7;VICTOR RAUL HINOJOSA;3;CL03_PP_242;paradero 3 de octubre;-16.44392485;-71.51794745;-1946592.251;2839816.838;Fixed;Propuesto
7;VICTOR RAUL HINOJOSA;3;CL03_PP_243;parque la colina de poni;-16.44714608;-71.51729113;-1946978.941;2839849.045;Fixed;Propuesto
7;VICTOR RAUL HINOJOSA;3;CL03_PP_244;comedor la dreńa;-16.44665026;-71.51686676;-1946926.063;2839903.647;Fixed;Propuesto
7;VICTOR RAUL HINOJOSA;3;CL03_PP_245;terminal 4 de octubre;-16.4509841;-71.51561558;-1947450.974;2839988.697;Fixed;Propuesto
7;VICTOR RAUL HINOJOSA;3;CL03_PP_246;entrada a las esmeraldas y campińa;-16.44899698;-71.51579019;-1947215.341;2839994.943;Fixed;Propuesto
7;VICTOR RAUL HINOJOSA;3;CL03_PP_247;entrada a la campińa;-16.45294518;-71.51562035;-1947681.28;2839962.456;Fixed;Propuesto
7;VICTOR RAUL HINOJOSA;3;CL03_PP_248;villa santa catalina;-16.45513869;-71.51394619;-1947960.126;2840123.482;Fixed;Propuesto
7;VICTOR RAUL HINOJOSA;3;CL03_PP_249;urb. los molles san jose;-16.45346759;-71.51107446;-1947800.148;2840470.923;Fixed;Propuesto
7;VICTOR RAUL HINOJOSA;3;CL03_PP_250;cadena bicolor;-16.44513691;-71.50878344;-1946850.496;2840839.834;Fixed;Propuesto
7;VICTOR RAUL HINOJOSA;3;CL03_PP_251;grifo primax;-16.4431341;-71.52323058;-1946432.599;2839228.294;Fixed;Propuesto
7;VICTOR RAUL HINOJOSA;3;CL03_PP_252;entrada a cerro july;-16.43051871;-71.53721029;-1944774.267;2837808.604;Fixed;Propuesto
7;VICTOR RAUL HINOJOSA;3;CL03_PP_253;calle locumba;-16.4344563;-71.53963691;-1945206.148;2837482.05;Fixed;Propuesto
7;VICTOR RAUL HINOJOSA;3;CL03_PP_254;loza deportiva villa manuelito;-16.42936951;-71.54031582;-1944600.108;2837471.584;Fixed;Propuesto
7;VICTOR RAUL HINOJOSA;3;CL03_PP_255;parque san jose;-16.43019989;-71.54217974;-1944674.131;2837249.442;Fixed;Propuesto
7;VICTOR RAUL HINOJOSA;3;CL03_PP_256;RESIDENCIAL VERCRUZ;-16.42259126;-71.5406294;-1943800.005;2837524.609;Fixed;Propuesto
7;VICTOR RAUL HINOJOSA;3;CL03_PP_257;ASOCIACIÓN NUEVO AMANECER LOS INCAS;-16.42113572;-71.54026004;-1943633.698;2837585.496;Fixed;Propuesto
7;VICTOR RAUL HINOJOSA;3;CL03_PP_258;MERCADO TOTAL;-16.42296522;-71.51631908;-1944150.678;2840275.811;Fixed;Propuesto
7;VICTOR RAUL HINOJOSA;3;CL03_PP_259;AV PRIMAVERA /EL SOL;-16.45529161;-71.51492973;-1947965.647;2840009.987;Fixed;Propuesto
7;VICTOR RAUL HINOJOSA;3;CL03_PP_260;ASOCIACIÓN NUEVO AMANECER LOS INCAS;-16.45335889;-71.51414794;-1947748.5;2840123.943;Fixed;Propuesto
7;VICTOR RAUL HINOJOSA;3;CL03_PP_261;CENTRO COMERCIAL VIDAURRAZAGA;-16.42194748;-71.53779547;-1943760.123;2837854.287;Fixed;Propuesto
2;BUENOS AIRES DE CAYMA;4;CL04_PP_001;IGLESIA BIBLICA BAUTISTA JESUS EL SALVADOR;-16.35486127;-71.5514892;-1935707.877;2837176.111;Mobile;Establecido
2;BUENOS AIRES DE CAYMA;4;CL04_PP_002;PLAZA DE BUENOS AIRES;-16.35434611;-71.55042889;-1935660.679;2837303.059;Mobile;Establecido
2;BUENOS AIRES DE CAYMA;4;CL04_PP_003;ESTUDIO DE ESCULTURA PROFESIONAL;-16.35318414;-71.55129393;-1935513.331;2837220.067;Mobile;Establecido
2;BUENOS AIRES DE CAYMA;4;CL04_PP_004;CRUCE AV. AVIACION;-16.35229422;-71.55505069;-1935361.64;2836805.594;Mobile;Establecido
2;BUENOS AIRES DE CAYMA;4;CL04_PP_005;PARQUE DEL NINHO;-16.35098245;-71.55460658;-1935213.136;2836873.012;Mobile;Establecido
2;BUENOS AIRES DE CAYMA;4;CL04_PP_006;POSTA MEDICA SAN JOSE;-16.34812183;-71.55442942;-1934879.353;2836930.288;Mobile;Establecido
2;BUENOS AIRES DE CAYMA;4;CL04_PP_007;PARQUE VILLA CONTINENTAL;-16.34662331;-71.55448342;-1934702.659;2836943.641;Mobile;Establecido
2;BUENOS AIRES DE CAYMA;4;CL04_PP_008;CANCHA VILLA CONTINENTAL;-16.34546667;-71.55344788;-1934579.795;2837076.116;Mobile;Establecido
2;BUENOS AIRES DE CAYMA;4;CL04_PP_009;COLEGIO CASIMIRO CUADROS;-16.34851155;-71.55201205;-1934955.47;2837199.378;Mobile;Establecido
2;BUENOS AIRES DE CAYMA;4;CL04_PP_010;LOSA DEPORTIVA LA CHAQUI;-16.35045406;-71.5521768;-1935181.57;2837155.439;Mobile;Establecido
2;BUENOS AIRES DE CAYMA;4;CL04_PP_011;MERCADO DE ALTO CAYMA;-16.34994277;-71.54931476;-1935157.443;2837486.675;Mobile;Establecido
2;BUENOS AIRES DE CAYMA;4;CL04_PP_012;IE. EL GRAN HEROE ANDRES AVELINO CACERES;-16.35203762;-71.54691126;-1935433.69;2837732.017;Mobile;Establecido
2;BUENOS AIRES DE CAYMA;4;CL04_PP_013;IGLESIA EVANGELICA PENTECOSTAL AREQUIPA;-16.34996178;-71.54590774;-1935202.453;2837872.828;Mobile;Establecido
2;BUENOS AIRES DE CAYMA;4;CL04_PP_014;PARQUE LOS ANGELES;-16.34825633;-71.54943532;-1934957.835;2837494.929;Mobile;Establecido
2;BUENOS AIRES DE CAYMA;4;CL04_PP_015;CANCHA RAMIRO PRIALE;-16.34662662;-71.54983584;-1934761.377;2837470.692;Mobile;Establecido
2;BUENOS AIRES DE CAYMA;4;CL04_PP_016;COMPLEJO DEPORTIVO CASIMIRO CUADROS II;-16.3473614;-71.54797768;-1934871.012;2837671.882;Mobile;Establecido
2;BUENOS AIRES DE CAYMA;4;CL04_PP_017;CANCHA DE FULBITO LAS MALVINAS;-16.34582367;-71.54673926;-1934705.93;2837832.331;Mobile;Establecido
2;BUENOS AIRES DE CAYMA;4;CL04_PP_018;PARQUE SAN JOSE DE PIRO;-16.34514675;-71.54548973;-1934642.101;2837982.851;Mobile;Establecido
2;BUENOS AIRES DE CAYMA;4;CL04_PP_019;PARQUE ALA DE ANGEL;-16.34241535;-71.54650781;-1934308.475;2837902.893;Mobile;Establecido
2;BUENOS AIRES DE CAYMA;4;CL04_PP_020;PARQUE VIRGEN DE LA CANDELARIA;-16.34407312;-71.54797361;-1934484.808;2837715.094;Mobile;Establecido
2;BUENOS AIRES DE CAYMA;4;CL04_PP_021;COMEDOR POPULAR SANTA ROSA DE LIMA;-16.34536498;-71.54987795;-1934612.652;2837482.317;Mobile;Establecido
2;BUENOS AIRES DE CAYMA;4;CL04_PP_022;LOSA DEPORTIVA SANTA ROSA;-16.34453751;-71.55107415;-1934500.442;2837357.406;Mobile;Establecido
2;BUENOS AIRES DE CAYMA;4;CL04_PP_023;LOSA DEPORTIVA CESAR VALLEJO;-16.34311038;-71.55187504;-1934322.758;2837285.121;Mobile;Establecido
2;BUENOS AIRES DE CAYMA;4;CL04_PP_024;LOSA DEPORTIVA SENHOR DE HUANCA;-16.34211176;-71.55081527;-1934218.756;2837418.294;Mobile;Establecido
2;BUENOS AIRES DE CAYMA;4;CL04_PP_025;LOSA DEPORTIVA SOL DE ORO;-16.34026194;-71.55249827;-1933980.354;2837251.451;Mobile;Establecido
2;BUENOS AIRES DE CAYMA;4;CL04_PP_026;CANCHA 19 DE ENERO;-16.34158399;-71.54899537;-1934179.6;2837631.562;Mobile;Establecido
2;BUENOS AIRES DE CAYMA;4;CL04_PP_027;PARQUE SAN MIGUEL;-16.34052359;-71.54775495;-1934070.607;2837786.031;Mobile;Establecido
2;BUENOS AIRES DE CAYMA;4;CL04_PP_028;ESCUELA DE BEISBOL CAYMA;-16.3375249;-71.54671755;-1933731.38;2837942.667;Mobile;Establecido
2;BUENOS AIRES DE CAYMA;4;CL04_PP_029;LOSA DEPORTIVA ENACE 9;-16.33669793;-71.54496653;-1933656.211;2838152.021;Mobile;Establecido
2;BUENOS AIRES DE CAYMA;4;CL04_PP_030;PARQUE RECREACIONAL SECTOR 12;-16.33686304;-71.54889915;-1933626.261;2837703.826;Mobile;Establecido
2;BUENOS AIRES DE CAYMA;4;CL04_PP_031;PARQUE DIVINO NINHO DE CAYMA;-16.33910365;-71.5536232;-1933830.187;2837138.914;Mobile;Establecido
2;BUENOS AIRES DE CAYMA;4;CL04_PP_032;CAMPO DE FUTBOL VILLA PARAISO;-16.33814555;-71.55464067;-1933704.884;2837035.962;Mobile;Establecido
2;BUENOS AIRES DE CAYMA;4;CL04_PP_033;COMPLEJO DEPORTIVO SECTOR 2;-16.33694199;-71.55263995;-1933588.607;2837278.515;Mobile;Establecido
2;BUENOS AIRES DE CAYMA;4;CL04_PP_034;CENTRO RECREACIONAL SECTOR III;-16.33476409;-71.55209393;-1933339.633;2837368.736;Mobile;Establecido
2;BUENOS AIRES DE CAYMA;4;CL04_PP_035;COLEGIO TERESITA DE JESUS;-16.3353434;-71.55060777;-1933426.322;2837529.774;Mobile;Establecido
2;BUENOS AIRES DE CAYMA;4;CL04_PP_036;LOSA DEPORTIVA SAN PEDRO;-16.33520206;-71.54772465;-1933445.889;2837858.622;Mobile;Establecido
2;BUENOS AIRES DE CAYMA;4;CL04_PP_037;LOSA DEPORTIVA SECTOR XIII;-16.33347801;-71.54687667;-1933254.009;2837977.204;Mobile;Establecido
2;BUENOS AIRES DE CAYMA;4;CL04_PP_038;LOSA DEPORTIVA SECTOR IV;-16.33289384;-71.54898084;-1933158.993;2837746.128;Mobile;Establecido
2;BUENOS AIRES DE CAYMA;4;CL04_PP_039;COLEGIO SAN JUAN MASIAS;-16.33101883;-71.54897695;-1932938.792;2837770.925;Mobile;Establecido
2;BUENOS AIRES DE CAYMA;4;CL04_PP_040;PARQUE SECTOR V;-16.33141046;-71.54810726;-1932995.704;2837864.483;Mobile;Establecido
2;BUENOS AIRES DE CAYMA;4;CL04_PP_041;LOSA DEPORTIVA SECTOR V;-16.33007857;-71.54630215;-1932861.892;2838086.533;Mobile;Establecido
2;BUENOS AIRES DE CAYMA;4;CL04_PP_042;PLAZA DEAN VALDIVIA SECTOR VI;-16.32907655;-71.54537707;-1932755.791;2838204.481;Mobile;Establecido
2;BUENOS AIRES DE CAYMA;4;CL04_PP_043;PARQUE ENACE 6;-16.32799657;-71.54412674;-1932644.61;2838360.336;Mobile;Establecido
2;BUENOS AIRES DE CAYMA;4;CL04_PP_044;COMISARIA DEAN VALDIVIA;-16.3317374;-71.54382073;-1933087.882;2838346.447;Mobile;Establecido
2;BUENOS AIRES DE CAYMA;4;CL04_PP_045;MERCADO DEAN VALDIVIA;-16.33013513;-71.54255533;-1932915.539;2838510.8;Mobile;Establecido
2;BUENOS AIRES DE CAYMA;4;CL04_PP_046;PARQUE DE LAS TRES ASTAS SECTOR 8;-16.32923649;-71.5417928;-1932819.543;2838608.971;Mobile;Establecido
2;BUENOS AIRES DE CAYMA;4;CL04_PP_047;PARQUE SECTOR 7;-16.32744814;-71.54203147;-1932606.469;2838605.133;Mobile;Establecido
2;BUENOS AIRES DE CAYMA;4;CL04_PP_048;CAMPO DEPORTIVO PRIMERO DE JUNIO;-16.32386426;-71.54110751;-1932197.054;2838756.499;Mobile;Establecido
2;BUENOS AIRES DE CAYMA;4;CL04_PP_049;IGLESIA PRIMERO DE JUNIO;-16.32492639;-71.53893613;-1932349.065;2838989.015;Mobile;Establecido
2;BUENOS AIRES DE CAYMA;4;CL04_PP_050;COLEGIO 11 DE MAYO;-16.31732605;-71.53770489;-1931471.66;2839227.412;Mobile;Establecido
2;BUENOS AIRES DE CAYMA;4;CL04_PP_051;LOSA DEPORTIVA 11 DE MAYO;-16.31869043;-71.53650678;-1931646.969;2839345.608;Mobile;Establecido
2;BUENOS AIRES DE CAYMA;4;CL04_PP_052;PARQUE LAS LOMADITAS;-16.321195;-71.5379753;-1931922.775;2839146.485;Mobile;Establecido
2;BUENOS AIRES DE CAYMA;4;CL04_PP_053;LOSA DEPORTIVA SENHOR DE LOS MILAGROS;-16.31341035;-71.5334328;-1931065.232;2839762.918;Mobile;Establecido
2;BUENOS AIRES DE CAYMA;4;CL04_PP_054;LOSA DEPORTIVA PALPATA;-16.31461599;-71.53965027;-1931128.901;2839041.91;Mobile;Establecido
2;BUENOS AIRES DE CAYMA;4;CL04_PP_055;LOSA DEPORTIVA PALPATA ZONA B;-16.31172618;-71.53755776;-1930815.654;2839316.816;Mobile;Establecido
2;BUENOS AIRES DE CAYMA;4;CL04_PP_056;PALPATA B;-16.30961446;-71.53490753;-1930600.802;2839644.9;Mobile;Establecido
2;BUENOS AIRES DE CAYMA;4;CL04_PP_057;COLEGIO MUJERES CON ESPERANZA;-16.31028797;-71.53186659;-1930718.056;2839981.155;Mobile;Establecido
2;BUENOS AIRES DE CAYMA;4;CL04_PP_058;LOSA DEPORTIVA EMBAJADA DE JAPON B;-16.30769243;-71.53108971;-1930422.872;2840102.999;Mobile;Establecido
2;BUENOS AIRES DE CAYMA;4;CL04_PP_059;LOCAL SOCIAL MUJERES CON ESPERANZA;-16.30665257;-71.53059011;-1930306.972;2840173.184;Mobile;Establecido
2;BUENOS AIRES DE CAYMA;4;CL04_PP_060;EMBAJADA DE JAPON B;-16.30583574;-71.53461901;-1930160.498;2839726.689;Mobile;Establecido
2;BUENOS AIRES DE CAYMA;4;CL04_PP_061;LOSA DEPORTIVA CABRERIAS;-16.30302897;-71.53014262;-1929886.872;2840270.999;Mobile;Establecido
2;BUENOS AIRES DE CAYMA;4;CL04_PP_062;LOSA DEPORTIVA CABRERIAS II;-16.30332212;-71.52763332;-1929952.775;2840551.898;Mobile;Establecido
2;BUENOS AIRES DE CAYMA;4;CL04_PP_063;PJ MARIANO MELGAR;-16.3012395;-71.53209471;-1929652.17;2840072.745;Mobile;Establecido
2;BUENOS AIRES DE CAYMA;4;CL04_PP_064;MIRADOR TRANSOCEANICA II;-16.30018182;-71.52796568;-1929579.67;2840554.957;Mobile;Establecido
2;BUENOS AIRES DE CAYMA;4;CL04_PP_065;CASA BLANCA;-16.29826301;-71.52783685;-1929355.854;2840594.482;Mobile;Establecido
2;BUENOS AIRES DE CAYMA;4;CL04_PP_066;LOSA DEPORTIVA CASA BLANCA;-16.29596349;-71.52756899;-1929089.05;2840654.721;Mobile;Establecido
2;BUENOS AIRES DE CAYMA;4;CL04_PP_067;LOCAL SOCIAL EL MIRADOR DE TRANSOCEANICA;-16.29604463;-71.53008644;-1929067.032;2840368.025;Mobile;Establecido
2;BUENOS AIRES DE CAYMA;4;CL04_PP_068;JARDIENES DE CAYMA;-16.29348299;-71.52766195;-1928796.462;2840676.362;Mobile;Establecido
2;BUENOS AIRES DE CAYMA;4;CL04_PP_069;capilla comite 16;-16.34966205;-71.54764789;-1935145.396;2837679.369;Fixed;Propuesto
2;BUENOS AIRES DE CAYMA;4;CL04_PP_070;loza deportiva;-16.34810033;-71.54639357;-1934977.698;2837841.936;Fixed;Propuesto
2;BUENOS AIRES DE CAYMA;4;CL04_PP_071;capilla upis dean valdivia;-16.34801021;-71.54521023;-1934981.969;2837977.317;Fixed;Propuesto
2;BUENOS AIRES DE CAYMA;4;CL04_PP_072;loza deportiva;-16.34116466;-71.54549528;-1934174.27;2838033.992;Fixed;Propuesto
2;BUENOS AIRES DE CAYMA;4;CL04_PP_073;loza deportiva;-16.3389297;-71.54785065;-1933882.178;2837795.892;Fixed;Propuesto
2;BUENOS AIRES DE CAYMA;4;CL04_PP_074;2 cuadras abajo del colegio kenneth hagin;-16.33380463;-71.54488119;-1933317.411;2838199.3;Fixed;Propuesto
2;BUENOS AIRES DE CAYMA;4;CL04_PP_075;loza deportiva;-16.33028889;-71.54057146;-1932958.493;2838733.836;Fixed;Propuesto
2;BUENOS AIRES DE CAYMA;4;CL04_PP_076;loza deportiva;-16.32819464;-71.54042296;-1932714.341;2838777.893;Fixed;Propuesto
2;BUENOS AIRES DE CAYMA;4;CL04_PP_077;quinata los cipreces;-16.32655781;-71.53952887;-1932533.276;2838900.581;Fixed;Propuesto
2;BUENOS AIRES DE CAYMA;4;CL04_PP_078;IEP. happy childrens;-16.31526743;-71.53475025;-1931266.876;2839589.337;Fixed;Propuesto
2;BUENOS AIRES DE CAYMA;4;CL04_PP_079;cancha deportiva milagros;-16.31278831;-71.53143709;-1931017.185;2839997.411;Fixed;Propuesto
2;BUENOS AIRES DE CAYMA;4;CL04_PP_080;los capulis;-16.31975273;-71.53778429;-1931755.74;2839186.887;Fixed;Propuesto
2;BUENOS AIRES DE CAYMA;4;CL04_PP_081;loza deportiva;-16.31809686;-71.54031974;-1931529.419;2838920.766;Fixed;Propuesto
2;BUENOS AIRES DE CAYMA;4;CL04_PP_082;parque agustino;-16.32595814;-71.54307705;-1932418.322;2838505.885;Fixed;Propuesto
2;BUENOS AIRES DE CAYMA;4;CL04_PP_083;MYE INGENIEROS EJECUTORES;-16.3269623;-71.54512304;-1932510.617;2838260.759;Fixed;Propuesto
2;BUENOS AIRES DE CAYMA;4;CL04_PP_084;parque;-16.33100163;-71.54613223;-1932972.454;2838093.817;Fixed;Propuesto
2;BUENOS AIRES DE CAYMA;4;CL04_PP_085;loza deportiva;-16.33408452;-71.55066426;-1933277.74;2837539.72;Fixed;Propuesto
2;BUENOS AIRES DE CAYMA;4;CL04_PP_086;paruq villafrank;-16.33447043;-71.54885282;-1933345.793;2837740.166;Fixed;Propuesto
2;BUENOS AIRES DE CAYMA;4;CL04_PP_087;parque comite 14;-16.3483439;-71.55548276;-1934892.218;2836807.943;Fixed;Propuesto
2;BUENOS AIRES DE CAYMA;4;CL04_PP_088;IEI san benito de palermo;-16.35180738;-71.54986176;-1935369.596;2837400.392;Fixed;Propuesto
2;BUENOS AIRES DE CAYMA;4;CL04_PP_089;AV PRINCIPAL;-16.29405524;-71.5285031;-1928853.151;2840573.494;Fixed;Propuesto
2;BUENOS AIRES DE CAYMA;4;CL04_PP_090;LOZA DEPORTIVA DE AA.HH SANTA ROSA DE LIMA;-16.33365004;-71.54247679;-1933329.422;2838474.034;Fixed;Propuesto
2;BUENOS AIRES DE CAYMA;4;CL04_PP_091;CRUZ DEL SECTOR 9 CAYMA;-16.33552002;-71.54535124;-1933513.017;2838123.694;Fixed;Propuesto
2;BUENOS AIRES DE CAYMA;4;CL04_PP_092;PARQUE CASIMIRO CUADROS;-16.34879944;-71.54708752;-1935051.106;2837754.14;Fixed;Propuesto
2;BUENOS AIRES DE CAYMA;4;CL04_PP_093;A.h Ampliacion Casimiro Cuadro Sector 1;-16.34898754;-71.55413776;-1934984.699;2836952.113;Fixed;Propuesto
2;BUENOS AIRES DE CAYMA;4;CL04_PP_094;PARQUE VILLA CONTINENTAL;-16.3444281;-71.5529436;-1934464.131;2837146.806;Fixed;Propuesto
2;BUENOS AIRES DE CAYMA;4;CL04_PP_095;Iglesia Casimiro Cuadros;-16.34679306;-71.55081383;-1934768.652;2837357.611;Fixed;Propuesto
2;BUENOS AIRES DE CAYMA;4;CL04_PP_096;Paradero Ruta Casimiro Buenos Aires Alto Cayma;-16.34319578;-71.54919877;-1934366.374;2837587.543;Fixed;Propuesto
2;BUENOS AIRES DE CAYMA;4;CL04_PP_097;CAPILLA DE SOL DE ORO;-16.33983181;-71.55043781;-1933955.681;2837490.733;Fixed;Propuesto
1;FRANCISCO BOLOGNESI;5;CL05_PP_001;PORQUE SENHOR DE LA CANHA;-16.39208737;-71.54947952;-1940105.652;2836919.315;Mobile;Establecido
1;FRANCISCO BOLOGNESI;5;CL05_PP_002;PARQUE JOSE RODRIGUEZ;-16.39022992;-71.54877113;-1939896.394;2837023.844;Mobile;Establecido
1;FRANCISCO BOLOGNESI;5;CL05_PP_003;PARQUE SEVILLA;-16.39062794;-71.54746719;-1939959.551;2837166.5;Mobile;Establecido
1;FRANCISCO BOLOGNESI;5;CL05_PP_004;PARROQUIA SAN JUAN DE DIOS;-16.38834482;-71.55038982;-1939654.614;2836864.88;Mobile;Establecido
1;FRANCISCO BOLOGNESI;5;CL05_PP_005;ISTITUTO HONORIO DELGADO;-16.38737674;-71.5489168;-1939559.437;2837044.512;Mobile;Establecido
1;FRANCISCO BOLOGNESI;5;CL05_PP_006;PARQUE LAS ORQUIDEAS;-16.38834096;-71.54694494;-1939697.499;2837255.525;Mobile;Establecido
1;FRANCISCO BOLOGNESI;5;CL05_PP_007;PARQUE EL BOSQUE;-16.38657007;-71.54566036;-1939505.655;2837424.259;Mobile;Establecido
1;FRANCISCO BOLOGNESI;5;CL05_PP_008;PARQUE CONDOMINIO LOS SAUCES;-16.38359166;-71.54406358;-1939175.899;2837644.134;Mobile;Establecido
1;FRANCISCO BOLOGNESI;5;CL05_PP_009;PARQUE SIMON BOLIVAR;-16.38453008;-71.54671237;-1939252.804;2837331.56;Mobile;Establecido
1;FRANCISCO BOLOGNESI;5;CL05_PP_010;PARQUE LA SENHORIAL;-16.38591393;-71.54730618;-1939407.879;2837246.195;Mobile;Establecido
1;FRANCISCO BOLOGNESI;5;CL05_PP_011;LOSA DEPORTIVA INGENIEROS;-16.38482169;-71.54921448;-1939255.583;2837044.053;Mobile;Establecido
1;FRANCISCO BOLOGNESI;5;CL05_PP_012;PARQUE LA EXPLANADA;-16.3866256;-71.55167019;-1939436.577;2836742.11;Mobile;Establecido
1;FRANCISCO BOLOGNESI;5;CL05_PP_013;PARQUE BOULEVARD;-16.38587097;-71.55174377;-1939347.015;2836743.599;Mobile;Establecido
1;FRANCISCO BOLOGNESI;5;CL05_PP_014;PARQUE URBANIZACION AVIDGE;-16.38448576;-71.55106962;-1939192.793;2836838.083;Mobile;Establecido
1;FRANCISCO BOLOGNESI;5;CL05_PP_015;URB LINDA VISTA;-16.38326386;-71.54955168;-1939068.364;2837026.116;Mobile;Establecido
1;FRANCISCO BOLOGNESI;5;CL05_PP_016;URB. MACONDO;-16.38223521;-71.54812767;-1938965.449;2837200.982;Mobile;Establecido
1;FRANCISCO BOLOGNESI;5;CL05_PP_017;LOSA DEPORTIVA LOS PORTALES;-16.38062285;-71.54861878;-1938769.888;2837166.301;Mobile;Establecido
1;FRANCISCO BOLOGNESI;5;CL05_PP_018;PLAZA OBANDO;-16.38019271;-71.55142412;-1938684.09;2836853.81;Mobile;Establecido
1;FRANCISCO BOLOGNESI;5;CL05_PP_019;PARQUE JORGE BASADRE;-16.37749986;-71.55378825;-1938338.078;2836620.812;Mobile;Establecido
1;FRANCISCO BOLOGNESI;5;CL05_PP_020;LOSA DEPORTIVA LOS ANGELES;-16.37586934;-71.55385512;-1938145.724;2836634.458;Mobile;Establecido
1;FRANCISCO BOLOGNESI;5;CL05_PP_021;PARQUE ALMUDENA;-16.37560336;-71.55217607;-1938135.587;2836828.31;Mobile;Establecido
1;FRANCISCO BOLOGNESI;5;CL05_PP_022;URB. LAS TERRASAS;-16.37393528;-71.54939653;-1937974.596;2837165.209;Mobile;Establecido
1;FRANCISCO BOLOGNESI;5;CL05_PP_023;PARQUE LA CAMPINHA;-16.3714619;-71.5465628;-1937719.695;2837518.749;Mobile;Establecido
1;FRANCISCO BOLOGNESI;5;CL05_PP_024;PARQUE LOS GIRASOLES;-16.37073256;-71.54509131;-1937652.523;2837695.111;Mobile;Establecido
1;FRANCISCO BOLOGNESI;5;CL05_PP_025;PARQUE LOS DELFINES;-16.37261925;-71.54570197;-1937866.46;2837601.294;Mobile;Establecido
1;FRANCISCO BOLOGNESI;5;CL05_PP_026;PARQUE SAN ANTONIO;-16.37343175;-71.54586885;-1937959.8;2837571.789;Mobile;Establecido
1;FRANCISCO BOLOGNESI;5;CL05_PP_027;LOSA DEPORTIVA LA MARINA;-16.37450354;-71.5457881;-1938086.709;2837566.987;Mobile;Establecido
1;FRANCISCO BOLOGNESI;5;CL05_PP_028;PARQUE LA CHACRITA;-16.37564482;-71.54344412;-1938250.241;2837817.92;Mobile;Establecido
1;FRANCISCO BOLOGNESI;5;CL05_PP_029;PARQUE HOSPITAL DE LA POLICIA;-16.37635311;-71.54513704;-1938312.148;2837616.723;Mobile;Establecido
1;FRANCISCO BOLOGNESI;5;CL05_PP_030;IE. MAYTA CAPAC;-16.37814945;-71.54441215;-1938532.265;2837675.522;Mobile;Establecido
1;FRANCISCO BOLOGNESI;5;CL05_PP_031;PLAZA LA ROMERO;-16.37756666;-71.54655087;-1938436.914;2837440.596;Mobile;Establecido
1;FRANCISCO BOLOGNESI;5;CL05_PP_032;CAYMA TRADICIONAL;-16.37917832;-71.54574684;-1938636.331;2837510.772;Mobile;Establecido
1;FRANCISCO BOLOGNESI;5;CL05_PP_033;PLAZA DE CAYMA PUEBLO TRADICIONAL;-16.38147637;-71.54558276;-1938908.325;2837499.437;Mobile;Establecido
1;FRANCISCO BOLOGNESI;5;CL05_PP_034;LOSA DEPORTIVA EL ROSARIO;-16.38284525;-71.54152633;-1939120.146;2837941.565;Mobile;Establecido
1;FRANCISCO BOLOGNESI;5;CL05_PP_035;COLEGIO SAN FRANCISCO DE ASIS;-16.38152531;-71.53984866;-1938986.211;2838149.005;Mobile;Establecido
1;FRANCISCO BOLOGNESI;5;CL05_PP_036;LOSA DEPORTIVA CARMEN ALTO;-16.37359096;-71.53756764;-1938082.895;2838511.067;Mobile;Establecido
1;FRANCISCO BOLOGNESI;5;CL05_PP_037;MIRADOR DE CARMEN ALTO;-16.37012904;-71.5365913;-1937688.512;2838666.892;Mobile;Establecido
1;FRANCISCO BOLOGNESI;5;CL05_PP_038;PARQUE AL ARADO AREQUIPENHO;-16.36366328;-71.54009944;-1936884.886;2838353.257;Mobile;Establecido
1;FRANCISCO BOLOGNESI;5;CL05_PP_039;PLAZA DEL PUEBLO TRADICIONAL;-16.36379573;-71.54119859;-1936886.628;2838226.88;Mobile;Establecido
1;FRANCISCO BOLOGNESI;5;CL05_PP_040;LOSA DEPORTIVA ASEQUIA ALTA;-16.36515395;-71.54113334;-1937046.994;2838216.596;Mobile;Establecido
1;FRANCISCO BOLOGNESI;5;CL05_PP_041;SANTISIMA CRUZ DE LA TOMILLA;-16.36535736;-71.54459197;-1937027.413;2837821.722;Mobile;Establecido
1;FRANCISCO BOLOGNESI;5;CL05_PP_042;LAS RENATAS;-16.36474958;-71.54765871;-1936917.483;2837481.857;Mobile;Establecido
1;FRANCISCO BOLOGNESI;5;CL05_PP_043;LOSA DEPORTIVA LA TOMILLA;-16.36154056;-71.54620947;-1936558.754;2837687.971;Mobile;Establecido
1;FRANCISCO BOLOGNESI;5;CL05_PP_044;MERCADO LA TOMILLA;-16.36202563;-71.54420949;-1936640.863;2837908.467;Mobile;Establecido
1;FRANCISCO BOLOGNESI;5;CL05_PP_045;ESTADIO DE ACEQUIA ALTA;-16.36075911;-71.54195213;-1936520.459;2838180.954;Mobile;Establecido
1;FRANCISCO BOLOGNESI;5;CL05_PP_046;PLAZA LA TOMILLA;-16.35811461;-71.54407036;-1936183.204;2837975.145;Mobile;Establecido
1;FRANCISCO BOLOGNESI;5;CL05_PP_047;CAPILLA LA TOMILLA;-16.35885881;-71.54613949;-1936244.626;2837730.804;Mobile;Establecido
1;FRANCISCO BOLOGNESI;5;CL05_PP_048;PARQUE INFANTIL AMPLIACION LA TOMILLA;-16.36000839;-71.54777078;-1936359.165;2837530.848;Mobile;Establecido
1;FRANCISCO BOLOGNESI;5;CL05_PP_049;LOSA DEPORTIVA LOS PITUCOS;-16.35737857;-71.54746182;-1936054.141;2837600.102;Mobile;Establecido
1;FRANCISCO BOLOGNESI;5;CL05_PP_050;PARQUE ZORAIDA MONTES;-16.35590177;-71.54447568;-1935918.181;2837957.972;Mobile;Establecido
1;FRANCISCO BOLOGNESI;5;CL05_PP_051;COMPLEJO DEPORTIVO JULIO VILCA;-16.35614867;-71.54234358;-1935973.969;2838196.563;Mobile;Establecido
1;FRANCISCO BOLOGNESI;5;CL05_PP_052;COMISARIA ACEQUIA ALTA;-16.35605811;-71.54143253;-1935974.777;2838301.066;Mobile;Establecido
1;FRANCISCO BOLOGNESI;5;CL05_PP_053;CENTRO DE SALUD BOLOGNESI;-16.35471975;-71.54212271;-1935808.893;2838240.207;Mobile;Establecido
1;FRANCISCO BOLOGNESI;5;CL05_PP_054;PARQUE JUAN VELAZCO ALVARADO;-16.35391067;-71.54442585;-1935684.922;2837989.529;Mobile;Establecido
1;FRANCISCO BOLOGNESI;5;CL05_PP_055;MIRADOR DE CHILINA;-16.35348252;-71.54097608;-1935677.964;2838386.349;Mobile;Establecido
1;FRANCISCO BOLOGNESI;5;CL05_PP_056;PLAZA BOLOGNESI;-16.35226065;-71.54198411;-1935521.771;2838287.921;Mobile;Establecido
1;FRANCISCO BOLOGNESI;5;CL05_PP_057;MERCADO 24 DE JUNIO;-16.35005139;-71.54223033;-1935259.162;2838288.737;Mobile;Establecido
1;FRANCISCO BOLOGNESI;5;CL05_PP_058;ESTADIO JUAN VELASCO;-16.34940481;-71.54416674;-1935158.892;2838077.527;Mobile;Establecido
1;FRANCISCO BOLOGNESI;5;CL05_PP_059;LOSA DEPORTIVA MONTE VERDE;-16.34741984;-71.54501985;-1934915.012;2838006.587;Mobile;Establecido
1;FRANCISCO BOLOGNESI;5;CL05_PP_060;COLISEO FRANCISCO BOLOGNESI;-16.34723623;-71.54208099;-1934930.347;2838342.292;Mobile;Establecido
1;FRANCISCO BOLOGNESI;5;CL05_PP_061;PARQUE VILLA EL MIRADOR DE CHILINA;-16.34713768;-71.54037938;-1934940.141;2838536.569;Mobile;Establecido
1;FRANCISCO BOLOGNESI;5;CL05_PP_062;PARQUE DOLORES;-16.345691;-71.53896042;-1934788.02;2838716.327;Mobile;Establecido
1;FRANCISCO BOLOGNESI;5;CL05_PP_063;ESTADIO BOLOGNESI CAYMA;-16.34524805;-71.54219285;-1934695.395;2838355.463;Mobile;Establecido
1;FRANCISCO BOLOGNESI;5;CL05_PP_064;PARQUE LAS FLORES;-16.34351055;-71.54530518;-1934452.22;2838025.056;Mobile;Establecido
1;FRANCISCO BOLOGNESI;5;CL05_PP_065;IGLESIA SAN MARTIN DE PORRAS;-16.34264695;-71.54135252;-1934400.397;2838484.599;Mobile;Establecido
1;FRANCISCO BOLOGNESI;5;CL05_PP_066;COMPLEJO DEPORTIVO SAN MARTIN DE PORRAS;-16.34184142;-71.54148901;-1934304.059;2838479.592;Mobile;Establecido
1;FRANCISCO BOLOGNESI;5;CL05_PP_067;LOSA DEPORTIVA MARIA PRADO;-16.34189078;-71.53980178;-1934331.041;2838670.323;Mobile;Establecido
1;FRANCISCO BOLOGNESI;5;CL05_PP_068;LOSA DEPORTIVA JOSE OLAYA;-16.33913631;-71.54181086;-1933982.251;2838478.257;Mobile;Establecido
1;FRANCISCO BOLOGNESI;5;CL05_PP_069;PARQUE VICTOR RAUL;-16.34117387;-71.54442686;-1934188.762;2838155.053;Mobile;Establecido
1;FRANCISCO BOLOGNESI;5;CL05_PP_070;PARQUE VIRGEN DE CHAPI;-16.34033222;-71.54485625;-1934084.507;2838117.293;Mobile;Establecido
1;FRANCISCO BOLOGNESI;5;CL05_PP_071;LOSA DEPORTIVA RAFAEL BELAUNDE;-16.33760397;-71.54468133;-1933766.221;2838172.595;Mobile;Establecido
1;FRANCISCO BOLOGNESI;5;CL05_PP_072;RAFAEL BELAUNDE;-16.33593043;-71.54261005;-1933595.627;2838429.282;Mobile;Establecido
1;FRANCISCO BOLOGNESI;5;CL05_PP_073;LOSA DEPORTIVA RAFAEL BELAUNDE II;-16.3341053;-71.53995724;-1933414.522;2838753.908;Mobile;Establecido
1;FRANCISCO BOLOGNESI;5;CL05_PP_074;PARQUE RAFAEL BELAUNDE;-16.33171948;-71.54196993;-1933108.999;2838556.615;Mobile;Establecido
1;FRANCISCO BOLOGNESI;5;CL05_PP_075;LOSA DEPORTIVA SENHOR DE LOS MILAGROS;-16.33263416;-71.53756542;-1933271.723;2839044.337;Mobile;Establecido
1;FRANCISCO BOLOGNESI;5;CL05_PP_076;PARQUE PRIMERO DE JUNIO;-16.33149043;-71.53828199;-1933128.372;2838977.921;Mobile;Establecido
1;FRANCISCO BOLOGNESI;5;CL05_PP_077;LOSA DEPORTIVA 1 DE JUNIO;-16.32702642;-71.53630543;-1932628.771;2839260.147;Mobile;Establecido
1;FRANCISCO BOLOGNESI;5;CL05_PP_078;LOSA DEPORTIVA PRIMERO DE JUNIO;-16.32495024;-71.53446239;-1932407.998;2839496.2;Mobile;Establecido
1;FRANCISCO BOLOGNESI;5;CL05_PP_079;LOSA DEPORTIVA PEDRO PAULET;-16.32235524;-71.53480126;-1932098.894;2839491.477;Mobile;Establecido
1;FRANCISCO BOLOGNESI;5;CL05_PP_080;CAPILLA 11 DE MAYO ZONA A;-16.32051212;-71.53263343;-1931909.567;2839761.351;Mobile;Establecido
1;FRANCISCO BOLOGNESI;5;CL05_PP_081;LOSA DEPORTIVA SOL DE LOS ANDES;-16.31588554;-71.52596683;-1931449.682;2840577.784;Mobile;Establecido
1;FRANCISCO BOLOGNESI;5;CL05_PP_082;LOSA DEPORTIVA EMBAJADA DE JAPON B;-16.31312808;-71.5267045;-1931116.47;2840529.921;Mobile;Establecido
1;FRANCISCO BOLOGNESI;5;CL05_PP_083;IGLESIA EMBAJADA DE JAPON;-16.31204645;-71.52540941;-1931005.644;2840690.907;Mobile;Establecido
1;FRANCISCO BOLOGNESI;5;CL05_PP_084;LOSA DEPORTIVA EMBAJADA DE JAPON A;-16.30950531;-71.52740453;-1930682.072;2840497.559;Mobile;Establecido
1;FRANCISCO BOLOGNESI;5;CL05_PP_085;LOCAL SOCIAL EMBAJADA DE JAPON;-16.30951417;-71.52546505;-1930707.442;2840717.492;Mobile;Establecido
1;FRANCISCO BOLOGNESI;5;CL05_PP_086;CANCHA EMBAJADA DE JAPON;-16.30760349;-71.5217783;-1930529.214;2841160.608;Mobile;Establecido
1;FRANCISCO BOLOGNESI;5;CL05_PP_087;LOSA DEPORTIVA LOS PIONEROS A;-16.3058345;-71.52460007;-1930285.983;2840863.427;Mobile;Establecido
1;FRANCISCO BOLOGNESI;5;CL05_PP_088;LOSA DEPORTIVA LOS PIONEROS A II;-16.30577729;-71.52643733;-1930256.218;2840655.715;Mobile;Establecido
1;FRANCISCO BOLOGNESI;5;CL05_PP_089;LOCAL SOCIAL LOS PIONEROS DE CAYMA;-16.30485063;-71.52277448;-1930193.29;2841083.34;Mobile;Establecido
1;FRANCISCO BOLOGNESI;5;CL05_PP_090;LOSA DEPORTIVA LOS PIONEROS;-16.29969106;-71.52296485;-1929584.715;2841128.744;Mobile;Establecido
1;FRANCISCO BOLOGNESI;5;CL05_PP_091;LOSA DEPORTIVA LOS JAZMINES A;-16.29776531;-71.5226583;-1929362.306;2841188.532;Mobile;Establecido
1;FRANCISCO BOLOGNESI;5;CL05_PP_092;LOSA DEPORTIVA JAZMINES B;-16.29167776;-71.52095327;-1928668.456;2841461.029;Mobile;Establecido
1;FRANCISCO BOLOGNESI;5;CL05_PP_093;LOSA DEPORTIVA JAZMINES C;-16.29615817;-71.51878796;-1929222.015;2841648.565;Mobile;Establecido
1;FRANCISCO BOLOGNESI;5;CL05_PP_094;LOSA DEPORTIVA JARDINES DE CAYMA;-16.29739467;-71.51433727;-1929423.118;2842137.537;Mobile;Establecido
1;FRANCISCO BOLOGNESI;5;CL05_PP_095;LOSA DEPORTIVA VILLA LA LUZ;-16.3046248;-71.51800344;-1930226.61;2841627.615;Mobile;Establecido
1;FRANCISCO BOLOGNESI;5;CL05_PP_096;los angeles de cayma;-16.37785997;-71.55247401;-1938396.895;2836765.143;Fixed;Propuesto
1;FRANCISCO BOLOGNESI;5;CL05_PP_097;calle ramon castilla;-16.38032345;-71.54253922;-1938811.186;2837859.574;Fixed;Propuesto
1;FRANCISCO BOLOGNESI;5;CL05_PP_098;plaza carmen alto;-16.37226335;-71.53778098;-1937924.261;2838504.171;Fixed;Propuesto
1;FRANCISCO BOLOGNESI;5;CL05_PP_099;plaza de tronchadero;-16.36706843;-71.53865484;-1937303.04;2838472.742;Fixed;Propuesto
1;FRANCISCO BOLOGNESI;5;CL05_PP_100;calle 29mde julio con polar;-16.36452162;-71.54323688;-1936946.275;2837986.276;Fixed;Propuesto
1;FRANCISCO BOLOGNESI;5;CL05_PP_101;comision de regantes acequia alta;-16.36323217;-71.54275312;-1936800.891;2838057.923;Fixed;Propuesto
1;FRANCISCO BOLOGNESI;5;CL05_PP_102;colegio francisco bolognesi;-16.35149871;-71.54376991;-1935409.838;2838095.298;Fixed;Propuesto
1;FRANCISCO BOLOGNESI;5;CL05_PP_103;parque las tradiciones;-16.34335588;-71.54413428;-1934448.75;2838159.87;Fixed;Propuesto
1;FRANCISCO BOLOGNESI;5;CL05_PP_104;parque martir jose olaya;-16.34017569;-71.54276986;-1934092.308;2838355.971;Fixed;Propuesto
1;FRANCISCO BOLOGNESI;5;CL05_PP_105;cementerio;-16.33829844;-71.54013981;-1933904.803;2838678.691;Fixed;Propuesto
1;FRANCISCO BOLOGNESI;5;CL05_PP_106;asoc. rafael belaunde diez c.;-16.336125;-71.54069819;-1933642.479;2838643.61;Fixed;Propuesto
1;FRANCISCO BOLOGNESI;5;CL05_PP_107;policlinoco paz peru;-16.33404095;-71.54123252;-1933390.958;2838610.09;Fixed;Propuesto
1;FRANCISCO BOLOGNESI;5;CL05_PP_108;parque;-16.33085539;-71.54012588;-1933030.633;2838777.017;Fixed;Propuesto
1;FRANCISCO BOLOGNESI;5;CL05_PP_109;local social  primero de junio;-16.33030926;-71.53724988;-1933002.569;2839110.348;Fixed;Propuesto
1;FRANCISCO BOLOGNESI;5;CL05_PP_110;parque colegio sol de los andes;-16.31468516;-71.52727004;-1931292.305;2840445.529;Fixed;Propuesto
1;FRANCISCO BOLOGNESI;5;CL05_PP_111;Urb. Valle Escondido;-16.37012064;-71.5437513;-1937597.492;2837855.037;Fixed;Propuesto
1;FRANCISCO BOLOGNESI;5;CL05_PP_112;URBANIZACIÓN BELLO AMANECER;-16.37325856;-71.54647538;-1937931.831;2837505.267;Fixed;Propuesto
1;FRANCISCO BOLOGNESI;5;CL05_PP_113;LOS CERESOS;-16.38282045;-71.54672504;-1939051.833;2837352.4;Fixed;Propuesto
10;ALTO SELVA ALEGRE;6;CL06_PP_001;AVENIDA PRINCIPAL DE SAN LAZARO;-16.3661526;-71.53065853;-1937296.02;2839391.526;Fixed;Establecido
10;ALTO SELVA ALEGRE;6;CL06_PP_002;PARQUE SAN LAZARO;-16.36461498;-71.52847533;-1937142.854;2839659.164;Fixed;Establecido
10;ALTO SELVA ALEGRE;6;CL06_PP_003;PARQUE BALCONES DE CHILINA 2;-16.36362257;-71.52830143;-1937028.458;2839691.817;Fixed;Propuesto
10;ALTO SELVA ALEGRE;6;CL06_PP_004;CENTRO DEPORTIVO BALCONES DE CHILINA;-16.36283685;-71.52673261;-1936955.89;2839879.984;Fixed;Establecido
10;ALTO SELVA ALEGRE;6;CL06_PP_005;PARQUE BALCONES DE CHILINA;-16.36169941;-71.52619691;-1936829.006;2839955.562;Fixed;Propuesto
10;ALTO SELVA ALEGRE;6;CL06_PP_006;LOCAL COMUNAL C.E.I.;-16.3603869;-71.52581098;-1936679.672;2840016.433;Mobile;Establecido
